id,name,href,company,gbfs_href,location.latitude,location.longitude,location.city,location.country,system,source,ebikes,license.name,license.url,scooters,instances
abu-dhabi-careem-bike,Abu Dhabi Careem BIKE,/v2/networks/abu-dhabi-careem-bike,"[""Careem""]",https://dubai.publicbikesystem.net/customer/gbfs/v2/en/gbfs.json,24.4866,54.3728,Abu Dhabi,AE,,,,,,,
acces-velo-saguenay,Accès Vélo,/v2/networks/acces-velo-saguenay,"[""PBSC Urban Solutions""]",https://saguenay.publicbikesystem.net/customer/gbfs/v2/gbfs.json,48.433333,-71.083333,Saguenay,CA,,,,,,,
aksu,Aksu,/v2/networks/aksu,"[""阿克苏公共服务""]",,41.1664,80.2617,阿克苏市 (Aksu City),CN,,,,,,,
alba,Alba,/v2/networks/alba,"[""Comunicare S.r.l.""]",,44.716667,8.083333,Alba,IT,Bicincittà,https://www.bicincitta.com/frmLeStazioni.aspx?ID=139,,,,,
albabici,AlbaBici,/v2/networks/albabici,"[""Instituto Tecnológico de Castilla y León (ITCL)""]",,38.9943,-1.8602,Albacete,ES,bicicard,,,,,,
algira,AlGira,/v2/networks/algira,"[""Município de Almeirim"", ""Wegoshare, Lda""]",,39.2082,-8.6252,Almeirim,PT,,,True,,,,
almatybike,Almatybike,/v2/networks/almatybike,"[""Velobike.kz, LLP"", ""Smoove""]",,43.239101,76.9268076,Almaty,KZ,Velobike,,,,,,
alsa-nextbike-leon,Alsa nextbike León,/v2/networks/alsa-nextbike-leon,"[""Leonbici Nextbike Gmbh Y Autobuses Urbanos De Leon S.a. Ute""]",,42.5987263,-5.5670959,León,ES,Nextbike,,,,,,
altervelo,alterVélo libre service,/v2/networks/altervelo,"[""Ecovelo""]",https://api.gbfs.ecovelo.mobi/altervelo/gbfs.json,-21.3414,55.4777,Saint-Pierre,FR,Ecovelo,,True,,,,
ambici-amb,Ambici,/v2/networks/ambici-amb,"[""Nextbike GmbH"", ""TIER Mobility SE"", ""Transports Metropolitans de Barcelona"", ""Projectes i Serveis de Mobilitat S.A""]",https://gbfs.nextbike.net/maps/gbfs/v2/nextbike_bs/gbfs.json,41.44584,2.19902,Barcelona,ES,Ambici,,,,,,
ambici-badalona,Ambici,/v2/networks/ambici-badalona,"[""Nextbike GmbH"", ""TIER Mobility SE"", ""Transports Metropolitans de Barcelona"", ""Projectes i Serveis de Mobilitat S.A""]",https://gbfs.nextbike.net/maps/gbfs/v2/nextbike_bs/gbfs.json,41.447,2.245,Badalona,ES,Ambici,,,,,,
ambici-castelldefels,Ambici,/v2/networks/ambici-castelldefels,"[""Nextbike GmbH"", ""TIER Mobility SE"", ""Transports Metropolitans de Barcelona"", ""Projectes i Serveis de Mobilitat S.A""]",https://gbfs.nextbike.net/maps/gbfs/v2/nextbike_bs/gbfs.json,41.2816,1.97678,Castelldefels,ES,Ambici,,,,,,
ambici-cornella-de-llobregat,Ambici,/v2/networks/ambici-cornella-de-llobregat,"[""Nextbike GmbH"", ""TIER Mobility SE"", ""Transports Metropolitans de Barcelona"", ""Projectes i Serveis de Mobilitat S.A""]",https://gbfs.nextbike.net/maps/gbfs/v2/nextbike_bs/gbfs.json,41.3585,2.07081,Cornellà de Llobregat,ES,Ambici,,,,,,
ambici-el-prat-de-llobregat,Ambici,/v2/networks/ambici-el-prat-de-llobregat,"[""Nextbike GmbH"", ""TIER Mobility SE"", ""Transports Metropolitans de Barcelona"", ""Projectes i Serveis de Mobilitat S.A""]",https://gbfs.nextbike.net/maps/gbfs/v2/nextbike_bs/gbfs.json,41.3239,2.09317,El Prat de Llobregat,ES,Ambici,,,,,,
ambici-esplugues-de-llobregat,Ambici,/v2/networks/ambici-esplugues-de-llobregat,"[""Nextbike GmbH"", ""TIER Mobility SE"", ""Transports Metropolitans de Barcelona"", ""Projectes i Serveis de Mobilitat S.A""]",https://gbfs.nextbike.net/maps/gbfs/v2/nextbike_bs/gbfs.json,41.3771,2.08938,Esplugues de Llobregat,ES,Ambici,,,,,,
ambici-gava,Ambici,/v2/networks/ambici-gava,"[""Nextbike GmbH"", ""TIER Mobility SE"", ""Transports Metropolitans de Barcelona"", ""Projectes i Serveis de Mobilitat S.A""]",https://gbfs.nextbike.net/maps/gbfs/v2/nextbike_bs/gbfs.json,41.303,2.00269,Gavà,ES,Ambici,,,,,,
ambici-hospitalet-de-llobregat,Ambici,/v2/networks/ambici-hospitalet-de-llobregat,"[""Nextbike GmbH"", ""TIER Mobility SE"", ""Transports Metropolitans de Barcelona"", ""Projectes i Serveis de Mobilitat S.A""]",https://gbfs.nextbike.net/maps/gbfs/v2/nextbike_bs/gbfs.json,41.3631,2.1126,Hospitalet de Llobregat,ES,Ambici,,,,,,
ambici-molins-de-rei,Ambici,/v2/networks/ambici-molins-de-rei,"[""Nextbike GmbH"", ""TIER Mobility SE"", ""Transports Metropolitans de Barcelona"", ""Projectes i Serveis de Mobilitat S.A""]",https://gbfs.nextbike.net/maps/gbfs/v2/nextbike_bs/gbfs.json,41.4132,2.02037,Molins de Rei,ES,Ambici,,,,,,
ambici-sant-adria-de-besos,Ambici,/v2/networks/ambici-sant-adria-de-besos,"[""Nextbike GmbH"", ""TIER Mobility SE"", ""Transports Metropolitans de Barcelona"", ""Projectes i Serveis de Mobilitat S.A""]",https://gbfs.nextbike.net/maps/gbfs/v2/nextbike_bs/gbfs.json,41.43073,2.21855,Sant Adrià de Besòs,ES,Ambici,,,,,,
ambici-sant-boi-de-llobregat,Ambici,/v2/networks/ambici-sant-boi-de-llobregat,"[""Nextbike GmbH"", ""TIER Mobility SE"", ""Transports Metropolitans de Barcelona"", ""Projectes i Serveis de Mobilitat S.A""]",https://gbfs.nextbike.net/maps/gbfs/v2/nextbike_bs/gbfs.json,41.3458,2.03404,Sant Boi de Llobregat,ES,Ambici,,,,,,
ambici-sant-feliu-de-llobregat,Ambici,/v2/networks/ambici-sant-feliu-de-llobregat,"[""Nextbike GmbH"", ""TIER Mobility SE"", ""Transports Metropolitans de Barcelona"", ""Projectes i Serveis de Mobilitat S.A""]",https://gbfs.nextbike.net/maps/gbfs/v2/nextbike_bs/gbfs.json,41.38333,2.05,Sant Feliu de Llobregat,ES,Ambici,,,,,,
ambici-sant-joan-despi,Ambici,/v2/networks/ambici-sant-joan-despi,"[""Nextbike GmbH"", ""TIER Mobility SE"", ""Transports Metropolitans de Barcelona"", ""Projectes i Serveis de Mobilitat S.A""]",https://gbfs.nextbike.net/maps/gbfs/v2/nextbike_bs/gbfs.json,41.368,2.05635,Sant Joan Despí,ES,Ambici,,,,,,
ambici-sant-just-desvern,Ambici,/v2/networks/ambici-sant-just-desvern,"[""Nextbike GmbH"", ""TIER Mobility SE"", ""Transports Metropolitans de Barcelona"", ""Projectes i Serveis de Mobilitat S.A""]",https://gbfs.nextbike.net/maps/gbfs/v2/nextbike_bs/gbfs.json,41.3807,2.07496,Sant Just Desvern,ES,Ambici,,,,,,
ambici-santa-coloma-de-gramenet,Ambici,/v2/networks/ambici-santa-coloma-de-gramenet,"[""Nextbike GmbH"", ""TIER Mobility SE"", ""Transports Metropolitans de Barcelona"", ""Projectes i Serveis de Mobilitat S.A""]",https://gbfs.nextbike.net/maps/gbfs/v2/nextbike_bs/gbfs.json,41.4459,2.21033,Santa Coloma de Gramenet,ES,Ambici,,,,,,
ambici-viladecans,Ambici,/v2/networks/ambici-viladecans,"[""Nextbike GmbH"", ""TIER Mobility SE"", ""Transports Metropolitans de Barcelona"", ""Projectes i Serveis de Mobilitat S.A""]",https://gbfs.nextbike.net/maps/gbfs/v2/nextbike_bs/gbfs.json,41.3165,2.01306,Viladecans,ES,Ambici,,,,,,
andria,Andria in Bici,/v2/networks/andria,"[""Comunicare S.r.l.""]",,41.224346932834,16.296983922753956,Andria,IT,Bicincittà,https://www.bicincitta.com/frmLeStazioni.aspx?ID=192,,,,,
aqta,VLS AQTAs,/v2/networks/aqta,"[""Fifteen"", ""Veloc'Ouest""]",https://gbfs.partners.fifteen.eu/gbfs/2.2/auray-quiberon/en/gbfs.json,47.665705,-2.983669,Auray-Quiberon,FR,,,,,,,
aral,Aral,/v2/networks/aral,"[""阿克苏公共服务""]",,40.5577,81.2879,阿拉尔市 (Aral),CN,,,,,,,
arbike,ARbike,/v2/networks/arbike,"[""Comunicare S.r.l.""]",,43.473333,11.87,Arezzo,IT,Bicincittà,https://www.bicincitta.com/frmLeStazioni.aspx?ID=84,,,,,
arriva-nitra,Arriva,/v2/networks/arriva-nitra,"[""Nextbike GmbH""]",,48.3088,18.0783,Nitra,SK,,,,,,,
arval-scandicci,ARVAL,/v2/networks/arval-scandicci,"[""Nextbike GmbH""]",,43.7701,11.1592,Scandicci,IT,Nextbike,,,,,,
ascoli-piceno,Ascoli Piceno,/v2/networks/ascoli-piceno,"[""Comunicare S.r.l.""]",,42.85,13.583333,Ascoli Piceno,IT,Bicincittà,https://www.bicincitta.com/frmLeStazioni.aspx?ID=73,,,,,
athens-bikes,AthensBikes,/v2/networks/athens-bikes,"[""Brainbox Technology"", ""Smoove SAS""]",,37.9838,23.7275,Athens,GR,EasyBike,,,,,,
auxrmlevelo,AuxR_M le vélo,/v2/networks/auxrmlevelo,"[""Fifteen SAS""]",,47.797221,3.572376,Auxerre,FR,Fifteen,,,,,,
avelo-quebec,àVélo,/v2/networks/avelo-quebec,"[""PBSC Urban Solutions""]",https://quebec.publicbikesystem.net/customer/gbfs/v2/gbfs.json,46.81305,-71.2168,Québec,CA,,,,,,,
aventura,Aventura BCycle,/v2/networks/aventura,"[""BCycle, LLC""]",https://gbfs.bcycle.com/bcycle_aventura/gbfs.json,25.95711,-80.1395,"Aventura, FL",US,BCycle,,,,,,
aviles-en-bici,Avilés en Bici,/v2/networks/aviles-en-bici,"[""Instituto Tecnológico de Castilla y León (ITCL)""]",,43.5554,-5.9222,Avilés,ES,bicicard,,,,,,
aw-bike,AW-bike Ahrweiler,/v2/networks/aw-bike,"[""nextbike GmbH""]",https://gbfs.nextbike.net/maps/gbfs/v2/nextbike_rh/gbfs.json,50.5452,7.1212,Ahrweiler,DE,,,,,,,
baksi-antalya,Baksi,/v2/networks/baksi-antalya,"[""Baksi Bike Sharing System""]",,36.862048,30.638866,Antalya,TR,Baksi,,,,,,
baksi-cabis,Çabis,/v2/networks/baksi-cabis,"[""Baksi Bike Sharing System""]",,40.1531,26.4146,Çanakkale,TR,Baksi,,,,,,
baksi-nilesplit,Nilesplit,/v2/networks/baksi-nilesplit,"[""Baksi Bike Sharing System""]",,40.2127,28.9627,Nilüfer,TR,Baksi,,,,,,
batumvelo,Batumvelo,/v2/networks/batumvelo,"[""Smoove""]",,41.660906,41.678835,Batumi,GE,Smoove,,,,,,
bay-wheels,Bay Wheels,/v2/networks/bay-wheels,"[""Motivate LLC""]",https://gbfs.baywheels.com/gbfs/gbfs.json,37.7141454,-122.25,"San Francisco Bay Area, CA",US,,,,,,,
bealler,Pedaleando por Aller (BeALLER),/v2/networks/bealler,"[""Instituto Tecnológico de Castilla y León (ITCL)""]",,43.1482,-5.6295,Aller,ES,bicicard,,,,,,
belfastbikes-belfast,BelfastBikes,/v2/networks/belfastbikes-belfast,"[""Nextbike GmbH""]",,54.5969,-5.92918,Belfast,GB,Nextbike,,,,,,
bentonville,Bentonville BCycle,/v2/networks/bentonville,"[""BCycle, LLC""]",https://gbfs.bcycle.com/bcycle_bentonville/gbfs.json,36.3605,-94.1996,"Bentonville, AR",US,BCycle,,,,,,
bergen-bysykkel,Bysykkel,/v2/networks/bergen-bysykkel,"[""Urban Sharing AS""]",https://gbfs.urbansharing.com/bergenbysykkel.no/gbfs.json,60.391263,5.322054,Bergen,NO,,,,,,,
bergisches-e-bike,Bergisches e-Bike,/v2/networks/bergisches-e-bike,"[""Nextbike GmbH""]",,51.0192,7.18025,Bergisches e-Bike,DE,Nextbike,,,,,,
beryl-bcp,"Beryl - Bournemouth, Christchurch and Poole",/v2/networks/beryl-bcp,"[""Beryl""]",https://gbfs.beryl.cc/v2_2/BCP/gbfs.json,50.7196,-1.8734,"Bournemouth, Christchurch and Poole",GB,,,,,,,
beryl-brighton,Beryl - Brighton,/v2/networks/beryl-brighton,"[""Beryl""]",https://gbfs.beryl.cc/v2_2/Brighton/gbfs.json,50.8222,-0.1403,Brighton,GB,,,,,,,
beryl-cornwall,Beryl - Cornwall,/v2/networks/beryl-cornwall,"[""Beryl""]",https://gbfs.beryl.cc/v2_2/Cornwall/gbfs.json,50.2616,-5.051,Cornwall,GB,,,,,,,
beryl-dorchester-weymouth-portland,"Beryl - Dorchester, Weymouth and Portland",/v2/networks/beryl-dorchester-weymouth-portland,"[""Beryl""]",https://gbfs.beryl.cc/v2_2/Weymouth/gbfs.json,50.6085,-2.454,"Dorchester, Weymouth and Portland",GB,,,,,,,
beryl-eastleigh,Beryl - Eastleigh,/v2/networks/beryl-eastleigh,"[""Beryl""]",https://gbfs.beryl.cc/v2_2/Eastleigh/gbfs.json,50.9691,-1.3603,Eastleigh,GB,,,,,,,
beryl-greater-manchester,Beryl - Greater Manchester,/v2/networks/beryl-greater-manchester,"[""Beryl""]",https://gbfs.beryl.cc/v2_2/Greater_Manchester/gbfs.json,53.4795,-2.2436,Greater Manchester,GB,,,,,,,
beryl-guildford,Beryl - Guildford,/v2/networks/beryl-guildford,"[""Beryl""]",https://gbfs.beryl.cc/v2_2/Guildford/gbfs.json,51.2397,-0.5764,Guildford,GB,,,,,,,
beryl-hereford,Beryl - Hereford,/v2/networks/beryl-hereford,"[""Beryl""]",https://gbfs.beryl.cc/v2_2/Hereford/gbfs.json,52.0549,-2.7156,Hereford,GB,,,,,,,
beryl-hertsmere,Beryl - Hertsmere,/v2/networks/beryl-hertsmere,"[""Beryl""]",https://gbfs.beryl.cc/v2_2/Hertsmere/gbfs.json,51.6577,-0.2695,Hertsmere,GB,,,,,,,
beryl-leeds,Beryl - Leeds,/v2/networks/beryl-leeds,"[""Beryl""]",https://gbfs.beryl.cc/v2_2/Leeds/gbfs.json,53.7971,-1.5438,Leeds,GB,,,,,,,
beryl-norwich,Beryl - Norwich,/v2/networks/beryl-norwich,"[""Beryl""]",https://gbfs.beryl.cc/v2_2/Norwich/gbfs.json,52.6288,1.2934,Norwich,GB,,,,,,,
beryl-plymouth,Beryl - Plymouth,/v2/networks/beryl-plymouth,"[""Beryl""]",https://gbfs.beryl.cc/v2_2/Plymouth/gbfs.json,50.3714,-4.1421,Plymouth,GB,,,,,,,
beryl-stevenage,Beryl - Stevenage,/v2/networks/beryl-stevenage,"[""Beryl""]",https://gbfs.beryl.cc/v2_2/Stevenage/gbfs.json,51.9059,-0.1905,Stevenage,GB,,,,,,,
beryl-watford,Beryl - Watford,/v2/networks/beryl-watford,"[""Beryl""]",https://gbfs.beryl.cc/v2_2/Watford/gbfs.json,51.6556,-0.3953,Watford,GB,,,,,,,
beryl-west-midlands,Beryl - West Midlands,/v2/networks/beryl-west-midlands,"[""Beryl""]",https://gbfs.beryl.cc/v2_2/West_Midlands/gbfs.json,52.4798,-1.9014,West Midlands,GB,,,,,,,
beryl-worcester,Beryl - Worcester,/v2/networks/beryl-worcester,"[""Beryl""]",https://gbfs.beryl.cc/v2_2/Worcester/gbfs.json,52.1912,-2.2206,Worcester,GB,,,,,,,
bia,BIA,/v2/networks/bia,"[""Município de Ovar"", ""Share2Go - Mobilidade Partilhada, Sociedade Unipessoal Lda""]",,40.8599,-8.6246,Ovar,PT,,,True,,,,
bianzone-in-bici,Bianzone in Bici,/v2/networks/bianzone-in-bici,"[""Comunicare S.r.l.""]",,46.188197,10.109354,Bianzone,IT,Bicincittà,https://www.bicincitta.com/frmLeStazioni.aspx?ID=147,,,,,
biba,BiBa,/v2/networks/biba,"[""Instituto Tecnológico de Castilla y León (ITCL)""]",,38.878,-6.9701,Badajoz,ES,bicicard,,,,,,
bibo,BIBO,/v2/networks/bibo,"[""Movilidad Urbana Sostenible SLU""]",,40.4125,-3.8909,Boadilla del Monte,ES,,,,,,,
bici-bolzano,Bici Bolzano,/v2/networks/bici-bolzano,"[""Ecospazio Logiss S.r.l.""]",,46.49,11.3401,Bolzano,IT,,,,,,,
bici-co,BICI&CO,/v2/networks/bici-co,"[""Comunicare S.r.l.""]",,45.8080597,9.0851765,Como,IT,Bicincittà,https://www.bicincitta.com/frmLeStazioni.aspx?ID=157,,,,,
bici-ferrol-terra,BiciFerrolTerra,/v2/networks/bici-ferrol-terra,"[""2K SYSTEMS, S.L."", ""Bike Works Naron""]",,43.4896,-8.2193,Ferrol - Narón,ES,,,,,,,
bici-in-busto,Bici in Busto,/v2/networks/bici-in-busto,"[""Comunicare S.r.l.""]",,45.610555,8.852062,Busto Arsizio,IT,Bicincittà,https://www.bicincitta.com/frmLeStazioni.aspx?ID=66,,,,,
bici-perugia,Bici Perugia,/v2/networks/bici-perugia,"[""Comunicare S.r.l.""]",,43.1107168,12.3908279,Perugia,IT,Bicincittà,https://www.bicincitta.com/frmLeStazioni.aspx?ID=122,,,,,
bicialcazar,BiciAlcázar,/v2/networks/bicialcazar,"[""Instituto Tecnológico de Castilla y León (ITCL)""]",,39.3901,-3.2101,Alcázar de San Juan,ES,bicicard,,,,,,
biciarousa,BiciArousa,/v2/networks/biciarousa,"[""Instituto Tecnológico de Castilla y León (ITCL)""]",,42.5521,-8.8666,A Illa de Arousa,ES,bicicard,,,,,,
biciarteixo,biciArteixo,/v2/networks/biciarteixo,"[""Servizos Urbanos Municipais de Arteixo, S. A.""]",,43.3053,-8.5069,Arteixo,ES,Nextbike,,,,,,
bicibur,BiciBur,/v2/networks/bicibur,"[""Instituto Tecnológico de Castilla y León (ITCL)""]",,42.34392,-3.69697,Burgos,ES,,,,,,,
bicicas,Bicicas,/v2/networks/bicicas,"[""Maquiver S.L.U."", ""Ajuntament de Castelló de la Plana""]",,39.9856,-0.0389,Castelló de la Plana,ES,,,,,,,
bicicletar,Bicicletar,/v2/networks/bicicletar,"[""Mobilicidade Tecnologia LTD"", ""Grupo Serttel LTDA""]",,-3.7321944,-38.510347,Fortaleza,BR,Samba,,,,,,
bicicorunha,Bicicoruña,/v2/networks/bicicorunha,"[""PBSC Urban Solutions""]",https://acoruna.publicbikesystem.net/customer/gbfs/v2/gbfs.json,43.3623,-8.4115,A Coruña,ES,,,,,,,
bicicuenca,Bici Pública Cuenca,/v2/networks/bicicuenca,"[""Mobilicidade Tecnologia LTD"", ""Grupo Serttel LTDA""]",,-2.897,-79.0038,Cuenca,EC,Samba,,,,,,
bicielx,Bicielx,/v2/networks/bicielx,"[""Promociones e Iniciativas Municipales de Elche, S.A.""]",,38.2665,-0.7,Elx,ES,,,,,,,
bicikelj,Bicikelj,/v2/networks/bicikelj,"[""JCDecaux""]",,46.05645089999999,14.5080702,Ljubljana,SI,Cyclocity,https://developer.jcdecaux.com,,Open Licence,https://developer.jcdecaux.com/#/opendata/licence,,
bicilog,BiciLog,/v2/networks/bicilog,"[""Nextbike GmbH""]",,42.4658,-2.4402,Logroño,ES,Nextbike,,,,,,
bicimad,BiciMAD,/v2/networks/bicimad,"[""Empresa Municipal de Transportes de Madrid, S.A.""]",,40.4168,-3.7038,Madrid,ES,bicimad,https://mobilitylabs.emtmadrid.es/,,,,,
bicimia,bicimia,/v2/networks/bicimia,"[""Comunicare S.r.l.""]",,45.5378,10.2173,Brescia,IT,Bicincittà,https://bicimia.bresciamobilita.it/frmLeStazioni.aspx?ID=40,,,,,
bicimislata,BiciMislata,/v2/networks/bicimislata,"[""Movilidad Urbana Sostenible, S.L""]",,39.4763,-0.4182,Mislata,ES,Nextbike,,,,,,
bicincitta-acquarica-del-capo,Bicincittà,/v2/networks/bicincitta-acquarica-del-capo,"[""Comunicare S.r.l.""]",,39.9144573,18.2450324,Acquarica del Capo,IT,Bicincittà,https://www.bicincitta.com/frmLeStazioni.aspx?ID=146,,,,,
bicincitta-acquaviva-delle-fonti,Bicincittà,/v2/networks/bicincitta-acquaviva-delle-fonti,"[""Comunicare S.r.l.""]",,40.9303721,16.8414374,Acquaviva delle fonti,IT,Bicincittà,https://www.bicincitta.com/frmLeStazioni.aspx?ID=160,,,,,
bicincitta-alghero,Bicincittà,/v2/networks/bicincitta-alghero,"[""Comunicare S.r.l.""]",,40.5579517,8.319294900000001,Alghero,IT,Bicincittà,https://www.bicincitta.com/frmLeStazioni.aspx?ID=237,,,,,
bicincitta-assemini,Bicincittà,/v2/networks/bicincitta-assemini,"[""Comunicare S.r.l.""]",,39.28956306007679,9.006601555294765,Assemini,IT,Bicincittà,https://www.bicincitta.com/frmLeStazioni.aspx?ID=205,,,,,
bicincitta-borgarello,Bicincittà,/v2/networks/bicincitta-borgarello,"[""Comunicare S.r.l.""]",,45.23963753440171,9.136150475640875,Borgarello,IT,Bicincittà,https://www.bicincitta.com/frmLeStazioni.aspx?ID=208,,,,,
bicincitta-brancaleone,Bicincittà,/v2/networks/bicincitta-brancaleone,"[""Comunicare S.r.l.""]",,37.9679084,16.0757749,Brancaleone,IT,Bicincittà,https://www.bicincitta.com/frmLeStazioni.aspx?ID=104,,,,,
bicincitta-carrara,Bicincittà,/v2/networks/bicincitta-carrara,"[""Comunicare S.r.l.""]",,44.07731805550891,10.097172450401331,Carrara,IT,Bicincittà,https://www.bicincitta.com/frmLeStazioni.aspx?ID=211,,,,,
bicincitta-casaletto-spartano,Bicincittà,/v2/networks/bicincitta-casaletto-spartano,"[""Comunicare S.r.l.""]",,40.1532801,15.6211479,Casaletto Spartano,IT,Bicincittà,https://www.bicincitta.com/frmLeStazioni.aspx?ID=199,,,,,
bicincitta-castel-guelfo-the-style-outlets,Bicincittà,/v2/networks/bicincitta-castel-guelfo-the-style-outlets,"[""Comunicare S.r.l.""]",,44.4328527,11.6750857,Castel Guelfo di Bologna,IT,Bicincittà,https://www.bicincitta.com/frmLeStazioni.aspx?ID=233,,,,,
bicincitta-cesena,Mi Muovo in bici,/v2/networks/bicincitta-cesena,"[""Comunicare S.r.l.""]",,44.1396438,12.2464292,Cesena,IT,Bicincittà,http://www.mimuovoinbici.it/frmLeStazioni.aspx?ID=120,,,,,
bicincitta-cisterna-di-latina,Bicincittà,/v2/networks/bicincitta-cisterna-di-latina,"[""Comunicare S.r.l.""]",,41.5754029,12.8284772,Cisterna di Latina,IT,Bicincittà,https://www.bicincitta.com/frmLeStazioni.aspx?ID=217,,,,,
bicincitta-costa-blu,Costa Blu,/v2/networks/bicincitta-costa-blu,"[""Comunicare S.r.l.""]",,42.5009,14.1282,Montesilvano,IT,Bicincittà,https://www.bicincitta.com/frmLeStazioni.aspx?ID=268,,,,,
bicincitta-elmas,Bicincittà,/v2/networks/bicincitta-elmas,"[""Comunicare S.r.l.""]",,39.2634329,9.0515805,Elmas,IT,Bicincittà,https://www.bicincitta.com/frmLeStazioni.aspx?ID=218,,,,,
bicincitta-ente-parco-del-circeo,Bicincittà,/v2/networks/bicincitta-ente-parco-del-circeo,"[""Comunicare S.r.l.""]",,41.3151015,13.0330782,Parco Nazionale del Circeo,IT,Bicincittà,https://www.bicincitta.com/frmLeStazioni.aspx?ID=135,,,,,
bicincitta-ente-parco-di-montemarcello-magra,Bicincittà,/v2/networks/bicincitta-ente-parco-di-montemarcello-magra,"[""Comunicare S.r.l.""]",,44.1143897,9.9635986,Ente Parco Montemarcello Magra,IT,Bicincittà,https://www.bicincitta.com/frmLeStazioni.aspx?ID=132,,,,,
bicincitta-ente-parco-san-rossore,Bicincittà,/v2/networks/bicincitta-ente-parco-san-rossore,"[""Comunicare S.r.l.""]",,43.723826,10.339509,Parco naturale Migliarino San Rossore Massaciuccoli,IT,Bicincittà,https://www.bicincitta.com/frmLeStazioni.aspx?ID=145,,,,,
bicincitta-forli,Mi Muovo in Bici,/v2/networks/bicincitta-forli,"[""Comunicare S.r.l.""]",,44.2227398,12.0407312,Forlì,IT,Bicincittà,http://www.mimuovoinbici.it/frmLeStazioni.aspx?ID=119,,,,,
bicincitta-gaeta,Bicincittà,/v2/networks/bicincitta-gaeta,"[""Comunicare S.r.l.""]",,41.209620965538036,13.584335125656139,Gaeta,IT,Bicincittà,https://www.bicincitta.com/frmLeStazioni.aspx?ID=207,,,,,
bicincitta-gallipoli,Bicincittà,/v2/networks/bicincitta-gallipoli,"[""Comunicare S.r.l.""]",,40.0558554,17.9925085,Gallipoli,IT,Bicincittà,https://www.bicincitta.com/frmLeStazioni.aspx?ID=109,,,,,
bicincitta-imola,Mi Muovo in bici,/v2/networks/bicincitta-imola,"[""Comunicare S.r.l.""]",,44.3559128,11.7161197,Imola,IT,Bicincittà,http://www.mimuovoinbici.it/frmLeStazioni.aspx?ID=196,,,,,
bicincitta-lavis,Bicincittà,/v2/networks/bicincitta-lavis,"[""Comunicare S.r.l.""]",,46.1408423,11.1124935,Lavis,IT,Bicincittà,https://www.bicincitta.com/frmLeStazioni.aspx?ID=238,,,,,
bicincitta-livorno,Bicincittà,/v2/networks/bicincitta-livorno,"[""Comunicare S.r.l.""]",,43.548473,10.3105674,Livorno,IT,Bicincittà,https://www.bicincitta.com/frmLeStazioni.aspx?ID=226,,,,,
bicincitta-mantova,Bicincittà,/v2/networks/bicincitta-mantova,"[""Comunicare S.r.l.""]",,45.15866370764634,10.783718973016335,Mantova,IT,Bicincittà,https://www.bicincitta.com/frmLeStazioni.aspx?ID=204,,,,,
bicincitta-massa,Bici in Massa,/v2/networks/bicincitta-massa,"[""Comunicare S.r.l.""]",,44.0146,10.1017,Massa,IT,Bicincittà,https://www.bicincitta.com/frmLeStazioni.aspx?ID=275,,,,,
bicincitta-mezzocorona,Bicincittà,/v2/networks/bicincitta-mezzocorona,"[""Comunicare S.r.l.""]",,46.2339047,11.1277461,Mezzocorona,IT,Bicincittà,https://www.bicincitta.com/frmLeStazioni.aspx?ID=229,,,,,
bicincitta-mezzolombardo,Bicincittà,/v2/networks/bicincitta-mezzolombardo,"[""Comunicare S.r.l.""]",,46.21400260000001,11.0967867,Mezzolombardo,IT,Bicincittà,https://www.bicincitta.com/frmLeStazioni.aspx?ID=228,,,,,
bicincitta-modena,Mi Muovo in bici,/v2/networks/bicincitta-modena,"[""Comunicare S.r.l.""]",,44.647128,10.9252269,Modena,IT,Bicincittà,http://www.mimuovoinbici.it/frmLeStazioni.aspx?ID=180,,,,,
bicincitta-monserrato,Bicincittà,/v2/networks/bicincitta-monserrato,"[""Comunicare S.r.l.""]",,39.2560191,9.1453579,Monserrato,IT,Bicincittà,https://www.bicincitta.com/frmLeStazioni.aspx?ID=220,,,,,
bicincitta-montecatini-terme,Bicincittà,/v2/networks/bicincitta-montecatini-terme,"[""Comunicare S.r.l.""]",,43.88362791665083,10.764385656591799,Montecatini Terme,IT,Bicincittà,https://www.bicincitta.com/frmLeStazioni.aspx?ID=210,,,,,
bicincitta-monteriggioni,Sipedala,/v2/networks/bicincitta-monteriggioni,"[""Comunicare S.r.l.""]",,43.3896,11.2236,Monteriggioni,IT,Bicincittà,https://www.bicincitta.com/frmLeStazioni.aspx?ID=274,,,,,
bicincitta-monza,Bicincittà,/v2/networks/bicincitta-monza,"[""Comunicare S.r.l.""]",,45.5845001,9.2744485,Monza,IT,Bicincittà,https://www.bicincitta.com/frmLeStazioni.aspx?ID=224,,,,,
bicincitta-morigerati,Bicincittà,/v2/networks/bicincitta-morigerati,"[""Comunicare S.r.l.""]",,40.1422031,15.5298525,Morigerati,IT,Bicincittà,https://www.bicincitta.com/frmLeStazioni.aspx?ID=200,,,,,
bicincitta-parco-dei-colli-di-bergamo,Bicincittà,/v2/networks/bicincitta-parco-dei-colli-di-bergamo,"[""Comunicare S.r.l.""]",,45.72295637032245,9.649230073016383,Parco dei Colli di Bergamo,IT,Bicincittà,https://www.bicincitta.com/frmLeStazioni.aspx?ID=203,,,,,
bicincitta-parco-molentargius-saline,Bicincittà,/v2/networks/bicincitta-parco-molentargius-saline,"[""Comunicare S.r.l.""]",,39.2052545,9.146761099999999,Parco Naturale Molentargius - Saline,IT,Bicincittà,https://www.bicincitta.com/frmLeStazioni.aspx?ID=151,,,,,
bicincitta-pista,PisTA!,/v2/networks/bicincitta-pista,"[""Comunicare S.r.l.""]",,40.4351,17.2096,Taranto,IT,Bicincittà,https://www.bicincitta.com/frmLeStazioni.aspx?ID=270,,,,,
bicincitta-pizzighettone-formigara,Bicincittà,/v2/networks/bicincitta-pizzighettone-formigara,"[""Comunicare S.r.l.""]",,45.186748819167434,9.778087948479424,Pizzighettone e Formigara,IT,Bicincittà,https://www.bicincitta.com/frmLeStazioni.aspx?ID=209,,,,,
bicincitta-porto-torres,Bicincittà,/v2/networks/bicincitta-porto-torres,"[""Comunicare S.r.l.""]",,40.8333682,8.402292899999999,Porto Torres,IT,Bicincittà,https://www.bicincitta.com/frmLeStazioni.aspx?ID=221,,,,,
bicincitta-rivarolo-canavese,Bicincittà,/v2/networks/bicincitta-rivarolo-canavese,"[""Comunicare S.r.l.""]",,45.306633,7.723242,Rivarolo Canavese,IT,Bicincittà,https://www.bicincitta.com/frmLeStazioni.aspx?ID=227,,,,,
bicincitta-san-donato-milanese,Bicincittà,/v2/networks/bicincitta-san-donato-milanese,"[""Comunicare S.r.l.""]",,45.4092402,9.2684867,San Donato Milanese,IT,Bicincittà,https://www.bicincitta.com/frmLeStazioni.aspx?ID=234,,,,,
bicincitta-san-giovanni-in-persiceto,Mi Muovo in Bici,/v2/networks/bicincitta-san-giovanni-in-persiceto,"[""Comunicare S.r.l.""]",,44.6405433,11.1893053,San Giovanni in Persiceto,IT,Bicincittà,http://www.mimuovoinbici.it/frmLeStazioni.aspx?ID=101,,,,,
bicincitta-san-lazzaro-di-savena,Mi Muovo in Bici,/v2/networks/bicincitta-san-lazzaro-di-savena,"[""Comunicare S.r.l.""]",,44.4702725,11.409399,San Lazzaro di Savena,IT,Bicincittà,http://www.mimuovoinbici.it/frmLeStazioni.aspx?ID=100,,,,,
bicincitta-san-michele-alladige,Bicincittà,/v2/networks/bicincitta-san-michele-alladige,"[""Comunicare S.r.l.""]",,46.1878653,11.1330423,San Michele All'adige,IT,Bicincittà,https://www.bicincitta.com/frmLeStazioni.aspx?ID=231,,,,,
bicincitta-san-teodoro,Bicincittà,/v2/networks/bicincitta-san-teodoro,"[""Comunicare S.r.l.""]",,40.7722837,9.6695458,San Teodoro,IT,Bicincittà,https://www.bicincitta.com/frmLeStazioni.aspx?ID=225,,,,,
bicincitta-scafati,Bicincittà,/v2/networks/bicincitta-scafati,"[""Comunicare S.r.l.""]",,40.7620174,14.5363969,Scafati,IT,Bicincittà,https://www.bicincitta.com/frmLeStazioni.aspx?ID=106,,,,,
bicincitta-scandiano,Mi Muovo in Bici,/v2/networks/bicincitta-scandiano,"[""Comunicare S.r.l.""]",,44.5982342,10.6909273,Scandiano,IT,Bicincittà,http://www.mimuovoinbici.it/frmLeStazioni.aspx?ID=94,,,,,
bicincitta-selargius,Bicincittà,/v2/networks/bicincitta-selargius,"[""Comunicare S.r.l.""]",,39.2596768,9.1629372,Selargius,IT,Bicincittà,https://www.bicincitta.com/frmLeStazioni.aspx?ID=219,,,,,
bicincitta-siena,Bicincittà,/v2/networks/bicincitta-siena,"[""Comunicare S.r.l.""]",,43.3186,11.3306,Siena,IT,Bicincittà,https://www.bicincitta.com/frmLeStazioni.aspx?ID=202,,,,,
bicincitta-tivat,Bicincittà,/v2/networks/bicincitta-tivat,"[""Comunicare S.r.l.""]",,42.4349809,18.7066398,TV,ME,Bicincittà,https://www.bicincitta.com/frmLeStazioni.aspx?ID=87,,,,,
bicincitta-tortoli,Bicincittà,/v2/networks/bicincitta-tortoli,"[""Comunicare S.r.l.""]",,39.92664489852196,9.654953570777934,Tortolì,IT,Bicincittà,https://www.bicincitta.com/frmLeStazioni.aspx?ID=206,,,,,
bicincitta-treviglio,Bicincittà,/v2/networks/bicincitta-treviglio,"[""Comunicare S.r.l.""]",,45.5293372,9.591435899999999,Treviglio,IT,Bicincittà,https://www.bicincitta.com/frmLeStazioni.aspx?ID=174,,,,,
bicincitta-trieste,BiTS,/v2/networks/bicincitta-trieste,"[""Comunicare S.r.l.""]",,45.6495,13.7768,Trieste,IT,Bicincittà,https://www.bicincitta.com/frmLeStazioni.aspx?ID=266,,,,,
bicincitta-vicolungo-the-style-outlets,Bicincittà,/v2/networks/bicincitta-vicolungo-the-style-outlets,"[""Comunicare S.r.l.""]",,45.47167229999999,8.4633922,Vicolungo,IT,Bicincittà,https://www.bicincitta.com/frmLeStazioni.aspx?ID=232,,,,,
bicing,Bicing,/v2/networks/bicing,"[""Barcelona de Serveis Municipals, S.A. (BSM)"", ""CESPA"", ""PBSC""]",,41.3850639,2.1734035,Barcelona,ES,,,True,,,,
bicinquartucciu,BicinQuartucciu,/v2/networks/bicinquartucciu,"[""Comunicare S.r.l.""]",,39.25043149806156,9.179296426489255,Quartucciu,IT,Bicincittà,https://www.bicincitta.com/frmLeStazioni.aspx?ID=193,,,,,
bicinrivas,BiciNRivas,/v2/networks/bicinrivas,"[""Lyft Inc.""]",https://rivas.publicbikesystem.net/customer/gbfs/v2/gbfs.json,40.35353,-3.53095,Rivas-Vaciamadrid,ES,,,,,,,
bicipalma,Bicipalma,/v2/networks/bicipalma,"[""Nextbike GmbH""]",,39.57119,2.646634,Palma,ES,Nextbike,,,,,,
bicisanvi,Bicisanvi,/v2/networks/bicisanvi,"[""Movilidad Urbana Sostenible SLU""]",,38.39611,-0.5236,Sant Vicent del Raspeig,ES,,,,,,,
bicischio,BiciSchio,/v2/networks/bicischio,"[""Comunicare S.r.l.""]",,45.7170517,11.3597702,Schio,IT,Bicincittà,https://www.bicincitta.com/frmLeStazioni.aspx?ID=91,,,,,
biclis,biclis,/v2/networks/biclis,"[""Município de Leiria"", ""Share2Go - Mobilidade Partilhada, Sociedade Unipessoal Lda""]",,39.7495,-8.8074,Leiria,PT,,,True,,,,
bicloo,Bicloo,/v2/networks/bicloo,"[""JCDecaux""]",,47.218371,-1.553621,Nantes,FR,Cyclocity,https://developer.jcdecaux.com,,Open Licence,https://developer.jcdecaux.com/#/opendata/licence,,
bicyklezadobreskutky,Bicykle za dobré skutky,/v2/networks/bicyklezadobreskutky,"[""Open Source Bike Share""]",,48.996275,21.234341,Prešov,SK,OpenSourceBikeShare,,,,,,
biella,Biella,/v2/networks/biella,"[""Comunicare S.r.l.""]",,45.5775,8.051111,Biella,IT,Bicincittà,https://www.bicincitta.com/frmLeStazioni.aspx?ID=112,,,,,
bigi,BiGi,/v2/networks/bigi,"[""Comunicare S.r.l.""]",,45.695,9.67,Bergamo,IT,Bicincittà,https://www.bicincitta.com/frmLeStazioni.aspx?ID=133,,,,,
bike-chattanooga,Bike Chattanooga,/v2/networks/bike-chattanooga,"[""Motivate International, Inc"", ""PBSC""]",https://chat.publicbikesystem.net/ube/gbfs/v1/,35.0456297,-85.3096801,"Chattanooga, TN",US,,,True,,,,
bike-curitiba,BikeCuritiba,/v2/networks/bike-curitiba,"[""M1 Transportes Sustentáveis Ltda."", ""M2 Soluções Em Engenharia Ltda."", ""Tembici""]",https://curitiba.publicbikesystem.net/customer/gbfs/v2/gbfs.json,-25.4299,-49.2722,Curitiba,BR,,,,,,,
bike-itau-nordelta,Bike Itaú Nordelta,/v2/networks/bike-itau-nordelta,"[""Tembici"", ""Itaú Argentina"", ""Zurich Insurance Group""]",https://nordelta.publicbikesystem.net/customer/gbfs/v2/gbfs.json,-34.4146,-58.6493,Nordelta,AR,,,,,,,
bikebrasilia,BikeBrasilia,/v2/networks/bikebrasilia,"[""Tembici""]",https://brasilia.publicbikesystem.net/customer/ube/gbfs/v1/,-15.795115,-47.887424,Brasília,BR,,,,,,,
bikekia-zilina,BikeKia,/v2/networks/bikekia-zilina,"[""Nextbike GmbH""]",,49.2217,18.7572,Žilina,SK,Nextbike,,,,,,
bikemi,BikeMi,/v2/networks/bikemi,"[""IGP S.p.A.""]",https://gbfs.urbansharing.com/bikemi.com/gbfs.json,45.4654542,9.186516,Milano,IT,,,True,,,,
bikenmedio,BikEnmedio,/v2/networks/bikenmedio,"[""Instituto Tecnológico de Castilla y León (ITCL)""]",,42.9995,-4.1393,Campoo de Enmedio,ES,bicicard,,,,,,
bikepoa,BikePOA,/v2/networks/bikepoa,"[""Tembici"", ""PBSC Urban Solutions""]",https://poa.publicbikesystem.net/ube/gbfs/v1/,-30.033079,-51.23654,Porto Alegre,BR,,,,,,,
bikerecife,BikeRecife,/v2/networks/bikerecife,"[""Tembici"", ""PBSC Urban Solutions""]",https://rec.publicbikesystem.net/ube/gbfs/v1/,-8.047129,-34.873437,Recife,BR,,,,,,,
bikerio,BikeRio,/v2/networks/bikerio,"[""Tembici"", ""PBSC Urban Solutions""]",https://riodejaneiro.publicbikesystem.net/ube/gbfs/v1/,-22.904315,-43.184776,Rio de Janeiro,BR,,,,,,,
bikesalvador,BikeSalvador,/v2/networks/bikesalvador,"[""Tembici"", ""PBSC Urban Solutions""]",https://salvador.publicbikesystem.net/ube/gbfs/v1/,-12.973959,-38.508171,Salvador,BR,,,,,,,
bikesampa,BikeSampa,/v2/networks/bikesampa,"[""Tembici"", ""PBSC Urban Solutions""]",https://saopaulo.publicbikesystem.net/ube/gbfs/v1/,-23.55,-46.6333,São Paulo,BR,,,,,,,
bikesantiago,BikeSantiago,/v2/networks/bikesantiago,"[""Tembici"", ""PBSC Urban Solutions""]",https://santiago.publicbikesystem.net/ube/gbfs/v1/,-33.45,-70.67,Santiago,CL,,,,,,,
bikesantos,BikeSantos,/v2/networks/bikesantos,"[""Mobilicidade Tecnologia LTD"", ""Grupo Serttel LTDA""]",,-23.954052,-46.333345,Santos,BR,Samba,,,,,,
bikeshare-peninsula-papagayo,Peninsula Papagayo Bike-Share,/v2/networks/bikeshare-peninsula-papagayo,"[""Ecodesarrollo Papagayo Limitada"", ""Wegoshare, Lda""]",,10.6246,-85.6796,Península de Papagayo,CR,,,True,,,,
biketown,BIKETOWN,/v2/networks/biketown,"[""Portland Bureau of Transportation (PBOT)"", ""Lyft Inc.""]",https://gbfs.biketownpdx.com/gbfs/gbfs.json,45.52175423291714,-122.68107935786247,"Portland, OR",US,,,,,,,
biketown-whq,Biketown WHQ (Nike campus),/v2/networks/biketown-whq,[],https://nike.publicbikesystem.net/customer/gbfs/v2/gbfs.json,45.5087,-122.8294,"Beaverton, OR",US,,,,,,,
bikeu-bra,Bydgoski rower aglomeracyjny,/v2/networks/bikeu-bra,"[""Bike U Sp. z o.o.""]",,53.12193,18.00038,Bydgoszcz,PL,Bike U,,,,,,
bikeverona,Verona Bike,/v2/networks/bikeverona,"[""IGP S.p.A."", ""Urban Sharing AS""]",https://gbfs.urbansharing.com/bikeverona.it/gbfs.json,45.438611,10.992778,Verona,IT,,,,,,,
bikevitoria,Bike Vitória,/v2/networks/bikevitoria,"[""Mobilicidade Tecnologia LTD"", ""Grupo Serttel LTDA""]",,-20.3202,-40.3375,Vitória,BR,Samba,,,,,,
biki,BIKI,/v2/networks/biki,"[""Autobuses Urbanos de Valladolid S.A""]",,41.6522,-4.7243,Valladolid,ES,,,True,,,,
bilbon-bizi,Bilbaobizi,/v2/networks/bilbon-bizi,"[""Lyft Inc.""]",https://bilbao.publicbikesystem.net/customer/gbfs/v2/gbfs.json,43.263,-2.935,Bilbao,ES,,,,,,,
bird-los-angeles,Bird Los Angeles,/v2/networks/bird-los-angeles,"[""Bird Rides, Inc.""]",https://mds.bird.co/gbfs/v2/public/los-angeles/gbfs.json,34.0522,-118.2437,"Los Angeles, CA",US,,,,,,,
bird-portland,Bird Portland,/v2/networks/bird-portland,"[""Bird Rides, Inc.""]",https://mds.bird.co/gbfs/v2/public/portland/gbfs.json,45.5152,-122.6784,"Portland, OR",US,,,,,,,
bird-seattle,Bird Seattle,/v2/networks/bird-seattle,"[""Bird Rides, Inc.""]",https://mds.bird.co/gbfs/v2/public/seattle-washington/gbfs.json,47.6062,-122.3321,"Seattle, WA",US,,,,,,,
bismarck,BisPArks BCycle,/v2/networks/bismarck,"[""BCycle, LLC""]",https://gbfs.bcycle.com/bcycle_bismarck/gbfs.json,46.8082,-100.7847,"Bismarck, ND",US,BCycle,,,,,,
bixi-montreal,Bixi,/v2/networks/bixi-montreal,"[""Motivate International, Inc."", ""PBSC Urban Solutions"", ""BIXI Montréal""]",https://gbfs.velobixi.com/gbfs/gbfs.json,45.508693,-73.553928,"Montréal, QC",CA,,,True,,,,
bixi-toronto,Bike Share Toronto,/v2/networks/bixi-toronto,"[""Motivate International, Inc."", ""PBSC Urban Solutions""]",https://tor.publicbikesystem.net/ube/gbfs/v1/,43.653226,-79.3831843,"Toronto, ON",CA,,,,,,,
bizi,Bizi,/v2/networks/bizi,"[""UTE Serveo Servicios"", ""PBSC Urban Solutions""]",https://zaragoza.publicbikesystem.net/customer/gbfs/v2/gbfs.json,41.6487908,-0.8895811,Zaragoza,ES,,,,,,,
bizkaibizi-barakaldo,Bizkaibizi,/v2/networks/bizkaibizi-barakaldo,"[""UTE Bizkaibizi""]",,43.2966,-2.987,Barakaldo,ES,Bizkaibizi,,,,,,
bizkaibizi-berango,Bizkaibizi,/v2/networks/bizkaibizi-berango,"[""UTE Bizkaibizi""]",,43.3619,-2.9968,Berango,ES,Bizkaibizi,,,,,,
bizkaibizi-bilbao,Bizkaibizi,/v2/networks/bizkaibizi-bilbao,"[""UTE Bizkaibizi""]",,43.2617,-2.9491,Bilbao,ES,Bizkaibizi,,,,,,
bizkaibizi-erandio,Bizkaibizi,/v2/networks/bizkaibizi-erandio,"[""UTE Bizkaibizi""]",,43.3029,-2.9756,Erandio,ES,Bizkaibizi,,,,,,
bizkaibizi-getxo,Bizkaibizi,/v2/networks/bizkaibizi-getxo,"[""UTE Bizkaibizi""]",,43.3476,-3.0088,getxo,ES,Bizkaibizi,,,,,,
bizkaibizi-leioa,Bizkaibizi,/v2/networks/bizkaibizi-leioa,"[""UTE Bizkaibizi""]",,43.3266,-2.9897,Leioa,ES,Bizkaibizi,,,,,,
bizkaibizi-portugalete,Bizkaibizi,/v2/networks/bizkaibizi-portugalete,"[""UTE Bizkaibizi""]",,43.318,-3.0214,Portugalete,ES,Bizkaibizi,,,,,,
bizkaibizi-santurtzi,Bizkaibizi,/v2/networks/bizkaibizi-santurtzi,"[""UTE Bizkaibizi""]",,43.328,-3.0335,Santurtzi,ES,Bizkaibizi,,,,,,
bizkaibizi-sestao,Bizkaibizi,/v2/networks/bizkaibizi-sestao,"[""UTE Bizkaibizi""]",,43.3093,-3.0068,Sestao,ES,Bizkaibizi,,,,,,
bl-bike-banja-luka,BL bike,/v2/networks/bl-bike-banja-luka,"[""Nextbike GmbH""]",,44.775,17.1994,Banja Luka,BA,Nextbike,,,,,,
blue-bikes,Blue Bikes,/v2/networks/blue-bikes,"[""Motivate International, Inc."", ""PBSC Urban Solutions""]",https://gbfs.bluebikes.com/gbfs/gbfs.json,42.3584308,-71.0597732,"Boston, MA",US,,,True,,,,
bora,Bora!,/v2/networks/bora,"[""SOLTRÁFEGO, SA""]",,40.656392,-7.912545,CIM Viseu Dão-Lafões,PT,Soltrafego,,,,,,
boulder,Boulder BCycle,/v2/networks/boulder,"[""BCycle, LLC""]",https://gbfs.bcycle.com/bcycle_boulder/gbfs.json,40.00811,-105.26385,"Boulder, CO",US,BCycle,,,,,,
brindisi,BrindisiByBike,/v2/networks/brindisi,"[""Comunicare S.r.l.""]",,40.637580319936106,17.940774547082572,Brindisi,IT,Bicincittà,https://www.bicincitta.com/frmLeStazioni.aspx?ID=197,,,,,
broward,Broward BCycle,/v2/networks/broward,"[""BCycle, LLC""]",https://gbfs.bcycle.com/bcycle_broward/gbfs.json,26.12026,-80.14819,"Fort Lauderdale, FL",US,BCycle,,,,,,
bubi,MOL Bubi,/v2/networks/bubi,"[""Nextbike GmbH""]",,47.497912,19.040235,Budapest,HU,Nextbike,,,,,,
bublr-bikes,Bublr Bikes,/v2/networks/bublr-bikes,"[""BCycle, LLC""]",https://gbfs.bcycle.com/bcycle_bublr/gbfs.json,43.0369,-87.89667,"Milwaukee, WI",US,BCycle,,,,,,
buga,BUGA,/v2/networks/buga,"[""SOLTRÁFEGO, SA""]",,40.6388,-8.6479,Aveiro,PT,Soltrafego,,,,,,
burgenland-neusiedler-see,Burgenland,/v2/networks/burgenland-neusiedler-see,"[""Nextbike GmbH""]",,47.839,16.761,Neusiedler See,AT,Nextbike,,,,,,
bysykkel-lillestrom,Bysykkel,/v2/networks/bysykkel-lillestrom,"[""JCDecaux""]",,59.9559696,11.0503785,Lillestrøm,NO,Cyclocity,https://developer.jcdecaux.com,,Open Licence,https://developer.jcdecaux.com/#/opendata/licence,,
c-velo,C.vélo,/v2/networks/c-velo,"[""CityBike France"", ""PBSC Urban Solutions""]",https://clermontferrand.publicbikesystem.net/customer/ube/gbfs/v1/,45.7831,3.0824,Clermont-Ferrand,FR,,,,,,,
cagliari,Cagliari,/v2/networks/cagliari,"[""Comunicare S.r.l.""]",,39.220817,9.121399,Cagliari,IT,Bicincittà,https://www.bicincitta.com/frmLeStazioni.aspx?ID=177,,,,,
callabike-berlin,Call-A-Bike,/v2/networks/callabike-berlin,"[""Deutsche Bahn AG""]",https://apis.deutschebahn.com/db-api-marketplace/apis/shared-mobility-gbfs/v2/de/CallABike/gbfs,52.5179,13.3895,Berlin,DE,deutschebahn,,,,,,
callabike-darmstadt,Call-A-Bike,/v2/networks/callabike-darmstadt,"[""Deutsche Bahn AG""]",https://apis.deutschebahn.com/db-api-marketplace/apis/shared-mobility-gbfs/v2/de/CallABike/gbfs,49.8707135,8.6527299,Darmstadt,DE,deutschebahn,,,,,,
callabike-frankfurt,Call-A-Bike,/v2/networks/callabike-frankfurt,"[""Deutsche Bahn AG""]",https://apis.deutschebahn.com/db-api-marketplace/apis/shared-mobility-gbfs/v2/de/CallABike/gbfs,50.1109,8.6795,Frankfurt,DE,deutschebahn,,,,,,
callabike-koln,Call-A-Bike,/v2/networks/callabike-koln,"[""Deutsche Bahn AG""]",https://apis.deutschebahn.com/db-api-marketplace/apis/shared-mobility-gbfs/v2/de/CallABike/gbfs,50.939,6.9595,Köln,DE,deutschebahn,,,,,,
callabike-munchen,Call-A-Bike,/v2/networks/callabike-munchen,"[""Deutsche Bahn AG""]",https://apis.deutschebahn.com/db-api-marketplace/apis/shared-mobility-gbfs/v2/de/CallABike/gbfs,48.1375,11.5759,München,DE,deutschebahn,,,,,,
capital-bikeshare,Capital BikeShare,/v2/networks/capital-bikeshare,"[""Motivate International, Inc."", ""PBSC Urban Solutions""]",https://gbfs.capitalbikeshare.com/gbfs/gbfs.json,38.8967584,-77.03701629999999,"Washington, DC",US,,,True,,,,
capmetro-austin,CapMetro Bikeshare,/v2/networks/capmetro-austin,"[""CapMetro"", ""City of Austin""]",https://austin.publicbikesystem.net/customer/gbfs/v2/gbfs.json,30.26408,-97.74355,"Austin, TX",US,,,,,,,
carbonia,Carbonia,/v2/networks/carbonia,"[""Comunicare S.r.l.""]",,39.167222,8.522222,Carbonia,IT,Bicincittà,https://www.bicincitta.com/frmLeStazioni.aspx?ID=173,,,,,
carvelo,carvelo eCargo-Bike Sharing,/v2/networks/carvelo,"[""Mobilitätsakademie AG"", ""Touring Club Switzerland (TCS)""]",https://gbfs.prod.sharedmobility.ch/v2/gbfs/carvelo2go/gbfs,46.9829,8.2331,Switzerland,CH,,https://github.com/SFOE/sharedmobility/blob/main/Access%20the%20data.md,,Open Use,https://opendata.swiss/en/dataset/standorte-und-verfugbarkeit-von-shared-mobility-angeboten,,
cascavel,Cascavel Vai de Bici,/v2/networks/cascavel,"[""Mobhis Automação Urbana""]",,-24.9558,-53.4566,Cascavel,BR,Mobhis,,,,,,
cassano-d-adda,Cassano d'Adda,/v2/networks/cassano-d-adda,"[""Comunicare S.r.l.""]",,45.5309616,9.5155813,Cassano d'Adda,IT,Bicincittà,https://www.bicincitta.com/frmLeStazioni.aspx?ID=143,,,,,
castellucchio,Castellucchio,/v2/networks/castellucchio,"[""Comunicare S.r.l.""]",,45.15047821582959,10.651202201843262,Castellucchio,IT,Bicincittà,https://www.bicincitta.com/frmLeStazioni.aspx?ID=161,,,,,
chantrerie-captainbike,Chantrerie VLS (Captain Bike),/v2/networks/chantrerie-captainbike,"[""Ecovelo""]",https://api.gbfs.ecovelo.mobi/chantrerie/gbfs.json,47.2868203,-1.5210917,"La Chantrerie, Nantes",FR,Ecovelo,,True,,,True,
charlotte,Charlotte Joyrides,/v2/networks/charlotte,"[""BCycle, LLC""]",https://gbfs.bcycle.com/bcycle_charlotte/gbfs.json,35.22716,-80.83855,"Charlotte, NC",US,BCycle,,,,,,
chartered-bike-bhopal,Chartered Bike,/v2/networks/chartered-bike-bhopal,"[""CHARTERED BIKE PRIVATE LIMITED""]",,23.258546,77.401851,Bhopal,IN,Chartered Bike,,,,,,
chartered-bike-bilaspur,Chartered Bike,/v2/networks/chartered-bike-bilaspur,"[""CHARTERED BIKE PRIVATE LIMITED""]",,22.07834,82.14768,Bilaspur,IN,Chartered Bike,,,,,,
chartered-bike-moradabad,Chartered Bike,/v2/networks/chartered-bike-moradabad,"[""CHARTERED BIKE PRIVATE LIMITED""]",,28.83263,78.77346,Moradabad,IN,Chartered Bike,,,,,,
chartered-bike-prayagraj,Chartered Bike,/v2/networks/chartered-bike-prayagraj,"[""CHARTERED BIKE PRIVATE LIMITED""]",,25.43802,81.83383,Prayagraj,IN,Chartered Bike,,,,,,
chartered-bike-rajarhat-new-town,Chartered Bike,/v2/networks/chartered-bike-rajarhat-new-town,"[""CHARTERED BIKE PRIVATE LIMITED""]",,22.58797,88.4731,Rajarhat New Town,IN,Chartered Bike,,,,,,
chartered-bike-ranchi,Chartered Bike,/v2/networks/chartered-bike-ranchi,"[""CHARTERED BIKE PRIVATE LIMITED""]",,23.37005,85.325004,Ranchi,IN,Chartered Bike,,,,,,
chartered-bike-srinagar,Chartered Bike,/v2/networks/chartered-bike-srinagar,"[""CHARTERED BIKE PRIVATE LIMITED""]",,34.07471,74.82044,Srinagar,IN,Chartered Bike,,,,,,
chartered-bike-surat,Chartered Bike,/v2/networks/chartered-bike-surat,"[""CHARTERED BIKE PRIVATE LIMITED""]",,21.18626,72.80798,Surat,IN,Chartered Bike,,,,,,
chivasso,Chivasso,/v2/networks/chivasso,"[""Comunicare S.r.l.""]",,45.189765,7.888935,Chivasso,IT,Bicincittà,https://www.bicincitta.com/frmLeStazioni.aspx?ID=201,,,,,
choletbus,Choletbus 2 roues,/v2/networks/choletbus,"[""Ecovelo""]",https://api.gbfs.ecovelo.mobi/choletbus/gbfs.json,47.06,-0.8783,Cholet,FR,Ecovelo,,True,,,,
ciclopi,Ciclopi,/v2/networks/ciclopi,"[""Comunicare S.r.l.""]",,43.7228386,10.4016888,Pisa,IT,Bicincittà,https://www.bicincitta.com/frmLeStazioni.aspx?ID=144,,,,,
cincy-red-bike,Cincy Red Bike,/v2/networks/cincy-red-bike,"[""BCycle, LLC""]",https://gbfs.bcycle.com/bcycle_cincyredbike/gbfs.json,39.10138,-84.51217,"Cincinnati, OH",US,BCycle,,,,,,
citi-bike-miami,Citi Bike Miami,/v2/networks/citi-bike-miami,"[""DecoBike LLC""]",,25.790654,-80.1300455,"Miami, FL",US,DecoBike,,,,,,
citi-bike-nyc,Citi Bike,/v2/networks/citi-bike-nyc,"[""NYC Bike Share, LLC"", ""Motivate International, Inc."", ""PBSC Urban Solutions""]",https://gbfs.citibikenyc.com/gbfs/gbfs.json,40.7143528,-74.00597309999999,"New York, NY",US,,,True,,,,
citybike-lima,CityBike Lima,/v2/networks/citybike-lima,"[""CityBike Miraflores S.A.C."", ""CityBike San Isidro S.A.C"", ""Fifteen"", ""Moventia""]",,-12.1209,-77.0296,Lima,PE,,,,,,,
citybikelinz,city bike Linz,/v2/networks/citybikelinz,"[""Nextbike GmbH""]",,48.3003,14.2843,Linz,AT,Nextbike,,,,,,
citybikes-helsinki,City bikes,/v2/networks/citybikes-helsinki,"[""Helsinki City Transport"", ""Helsinki Regional Transport"", ""CityBikeFinland"", ""Smoove SAS"", ""Moventia"", ""Alepa""]",,60.16985569999999,24.938379,Helsinki,FI,OTP,,,,,,
civitavecchia,Civitavecchia,/v2/networks/civitavecchia,"[""Comunicare S.r.l.""]",,42.0937524,11.7922462,Civitavecchia,IT,Bicincittà,https://www.bicincitta.com/frmLeStazioni.aspx?ID=127,,,,,
clemson,Clemson University Bike Share,/v2/networks/clemson,"[""BCycle, LLC""]",https://gbfs.bcycle.com/bcycle_clemson/gbfs.json,34.67847,-82.8351,"Clemson, SC",US,BCycle,,,,,,
clujbike,Cluj Bike,/v2/networks/clujbike,"[""Municipiul Cluj-Napoca""]",,46.775,23.5975,Cluj-Napoca,RO,Clujbike,,,,,,
co-bikes-exeter,Co-bikes,/v2/networks/co-bikes-exeter,"[""Nextbike GmbH""]",,50.7272,-3.53605,Exeter,GB,,,,,,,
cork,TFI Bikes,/v2/networks/cork,"[""The National Transport Authority""]",,51.893604,-8.494174,Cork,IE,TFI Bikes,,,,,,
cuneo,Cuneo,/v2/networks/cuneo,"[""Comunicare S.r.l.""]",,44.384238,7.541428,Cuneo,IT,Bicincittà,https://www.bicincitta.com/frmLeStazioni.aspx?ID=39,,,,,
cyclam,Cycl’AM,/v2/networks/cyclam,"[""Ecovelo""]",https://api.gbfs.ecovelo.mobi/cyclam/gbfs.json,49.7719,4.7161,Ardenne Métropole,FR,Ecovelo,,True,,,,
cyclolibre,CYCLOlibre,/v2/networks/cyclolibre,"[""Ecovelo""]",https://api.gbfs.ecovelo.mobi/cyclolibre/gbfs.json,43.2127,2.3492,Carcassonne,FR,Ecovelo,,True,,,,
cyclopolis-aua,Γεωπονικό Πανεπιστήμιο Αθηνών (Agricultural University of Athens),/v2/networks/cyclopolis-aua,"[""Cyclopolis Systems""]",,37.9846,23.7056,Athens,GR,Cyclopolis,,,,,,
cyclopolis-chania,Cyclopolis,/v2/networks/cyclopolis-chania,"[""Cyclopolis Systems""]",,35.5148425,24.0177549,Chania,GR,Cyclopolis,,,,,,
cyclopolis-edessa,Cyclopolis,/v2/networks/cyclopolis-edessa,"[""Cyclopolis Systems""]",,40.8033168,22.0436732,Edessa,GR,Cyclopolis,,,,,,
cyclopolis-igoumenitsa,Cyclopolis,/v2/networks/cyclopolis-igoumenitsa,"[""Cyclopolis Systems""]",,39.5031199,20.2639271,Igoumenitsa,GR,Cyclopolis,,,,,,
cyclopolis-loutraki,Cyclopolis,/v2/networks/cyclopolis-loutraki,"[""Cyclopolis Systems""]",,37.9782137,22.9767486,Loutraki,GR,Cyclopolis,,,,,,
cyclopolis-poros,Cyclopolis,/v2/networks/cyclopolis-poros,"[""Cyclopolis Systems""]",,37.4995,23.4546,Poros,GR,Cyclopolis,,,,,,
cyclovis,Cyclovis,/v2/networks/cyclovis,"[""Ecovelo""]",https://api.gbfs.ecovelo.mobi/cyclovis/gbfs.json,49.3817,3.3236,Soissons,FR,Ecovelo,,True,,,,
cykl,Cykl,/v2/networks/cykl,"[""Open Source Bike Share""]",,51.974,5.6671,Wageningen,NL,OpenSourceBikeShare,,,,,,
dbizi,Dbizi,/v2/networks/dbizi,"[""UTE BIZISS"", ""Movilidad Urbana Sostenible SLU"", ""URBASER, S.A."", ""AENOR INTERNACIONAL S.A."", ""PBSC Urban Solutions""]",https://sansebastian.publicbikesystem.net/customer/gbfs/v2/gbfs.json,43.3186,-1.9836,Donostia/San Sebastián,ES,,,,,,,
dcs-bike,DCS Bike,/v2/networks/dcs-bike,"[""Nextbike GmbH""]",,49.5346,8.47004,Mannheim,DE,Nextbike,,,,,,
denver,Lyft,/v2/networks/denver,"[""Lyft Inc.""]",https://s3.amazonaws.com/lyft-lastmile-production-iad/lbs/den/gbfs.json,39.72055,-104.95253,"Denver, CO",US,,,,,,,
desmoines,Des Moines BCycle,/v2/networks/desmoines,"[""BCycle, LLC""]",https://gbfs.bcycle.com/bcycle_desmoines/gbfs.json,41.6005448,-93.6091064,"Des Moines, IA",US,BCycle,,,,,,
divia-velodi,DiviaVélodi,/v2/networks/divia-velodi,"[""Cykleo SAS""]",,47.3215806,5.0414701,Dijon,FR,Cykleo,,,,,,
divvy,Divvy,/v2/networks/divvy,"[""Motivate International, Inc."", ""PBSC Urban Solutions""]",https://gbfs.divvybikes.com/gbfs/gbfs.json,41.8781136,-87.6297982,"Chicago, IL",US,,,True,,,,
docomo-cycle-aichi,Docomo Bike Share Aichi,/v2/networks/docomo-cycle-aichi,"[""DOCOMO BIKE SHARE, INC.""]",https://api-public.odpt.org/api/v4/gbfs/docomo-cycle/gbfs.json,35.1835,136.904,愛知県 (Aichi),JP,,https://ckan.odpt.org/en/dataset/c_bikeshare_gbfs-d-nationwide-bikeshare,,Creative Commons Attribution 4.0 International (CC BY 4.0),https://creativecommons.org/licenses/by/4.0/,,
docomo-cycle-fukui,Docomo Bike Share Fukui,/v2/networks/docomo-cycle-fukui,"[""DOCOMO BIKE SHARE, INC.""]",https://api-public.odpt.org/api/v4/gbfs/docomo-cycle/gbfs.json,36.0665,136.2138,福井県 (Fukui),JP,,https://ckan.odpt.org/en/dataset/c_bikeshare_gbfs-d-nationwide-bikeshare,,Creative Commons Attribution 4.0 International (CC BY 4.0),https://creativecommons.org/licenses/by/4.0/,,
docomo-cycle-gifu,Docomo Bike Share Gifu,/v2/networks/docomo-cycle-gifu,"[""DOCOMO BIKE SHARE, INC.""]",https://api-public.odpt.org/api/v4/gbfs/docomo-cycle/gbfs.json,35.4512,137.02627,岐阜県 (Gifu),JP,,https://ckan.odpt.org/en/dataset/c_bikeshare_gbfs-d-nationwide-bikeshare,,Creative Commons Attribution 4.0 International (CC BY 4.0),https://creativecommons.org/licenses/by/4.0/,,
docomo-cycle-hiroshima,Docomo Bike Share Hiroshima,/v2/networks/docomo-cycle-hiroshima,"[""DOCOMO BIKE SHARE, INC.""]",https://api-public.odpt.org/api/v4/gbfs/docomo-cycle/gbfs.json,34.3904,132.4527,広島県 (Hiroshima),JP,,https://ckan.odpt.org/en/dataset/c_bikeshare_gbfs-d-nationwide-bikeshare,,Creative Commons Attribution 4.0 International (CC BY 4.0),https://creativecommons.org/licenses/by/4.0/,,
docomo-cycle-hyogo,Docomo Bike Share Hyōgo,/v2/networks/docomo-cycle-hyogo,"[""DOCOMO BIKE SHARE, INC.""]",https://api-public.odpt.org/api/v4/gbfs/docomo-cycle/gbfs.json,34.8147,134.689,兵庫県 (Hyōgo),JP,,https://ckan.odpt.org/en/dataset/c_bikeshare_gbfs-d-nationwide-bikeshare,,Creative Commons Attribution 4.0 International (CC BY 4.0),https://creativecommons.org/licenses/by/4.0/,,
docomo-cycle-ibaraki,Docomo Bike Share Ibaraki,/v2/networks/docomo-cycle-ibaraki,"[""DOCOMO BIKE SHARE, INC.""]",https://api-public.odpt.org/api/v4/gbfs/docomo-cycle/gbfs.json,36.3732,140.2549,茨城県 (Ibaraki),JP,,https://ckan.odpt.org/en/dataset/c_bikeshare_gbfs-d-nationwide-bikeshare,,Creative Commons Attribution 4.0 International (CC BY 4.0),https://creativecommons.org/licenses/by/4.0/,,
docomo-cycle-ishikawa,Docomo Bike Share Ishikawa,/v2/networks/docomo-cycle-ishikawa,"[""DOCOMO BIKE SHARE, INC.""]",https://api-public.odpt.org/api/v4/gbfs/docomo-cycle/gbfs.json,36.5594,136.658,石川県 (Ishikawa),JP,,https://ckan.odpt.org/en/dataset/c_bikeshare_gbfs-d-nationwide-bikeshare,,Creative Commons Attribution 4.0 International (CC BY 4.0),https://creativecommons.org/licenses/by/4.0/,,
docomo-cycle-kagoshima,Docomo Bike Share Kagoshima,/v2/networks/docomo-cycle-kagoshima,"[""DOCOMO BIKE SHARE, INC.""]",https://api-public.odpt.org/api/v4/gbfs/docomo-cycle/gbfs.json,31.588,130.5547,鹿児島県 (Kagoshima),JP,,https://ckan.odpt.org/en/dataset/c_bikeshare_gbfs-d-nationwide-bikeshare,,Creative Commons Attribution 4.0 International (CC BY 4.0),https://creativecommons.org/licenses/by/4.0/,,
docomo-cycle-kanagawa,Docomo Bike Share Kanagawa,/v2/networks/docomo-cycle-kanagawa,"[""DOCOMO BIKE SHARE, INC.""]",https://api-public.odpt.org/api/v4/gbfs/docomo-cycle/gbfs.json,35.4504,139.625,神奈川県 (Kanagawa),JP,,https://ckan.odpt.org/en/dataset/c_bikeshare_gbfs-d-nationwide-bikeshare,,Creative Commons Attribution 4.0 International (CC BY 4.0),https://creativecommons.org/licenses/by/4.0/,,
docomo-cycle-kyoto,Docomo Bike Share Kyoto,/v2/networks/docomo-cycle-kyoto,"[""DOCOMO BIKE SHARE, INC.""]",https://api-public.odpt.org/api/v4/gbfs/docomo-cycle/gbfs.json,35.0001,135.7587,京都府 (Kyoto),JP,,https://ckan.odpt.org/en/dataset/c_bikeshare_gbfs-d-nationwide-bikeshare,,Creative Commons Attribution 4.0 International (CC BY 4.0),https://creativecommons.org/licenses/by/4.0/,,
docomo-cycle-miyagi,Docomo Bike Share Miyagi,/v2/networks/docomo-cycle-miyagi,"[""DOCOMO BIKE SHARE, INC.""]",https://api-public.odpt.org/api/v4/gbfs/docomo-cycle/gbfs.json,38.2607,140.8814,茨城県 (Miyagi),JP,,https://ckan.odpt.org/en/dataset/c_bikeshare_gbfs-d-nationwide-bikeshare,,Creative Commons Attribution 4.0 International (CC BY 4.0),https://creativecommons.org/licenses/by/4.0/,,
docomo-cycle-nara,Docomo Bike Share Nara,/v2/networks/docomo-cycle-nara,"[""DOCOMO BIKE SHARE, INC.""]",https://api-public.odpt.org/api/v4/gbfs/docomo-cycle/gbfs.json,34.6839,135.8087,奈良県 (Nara),JP,,https://ckan.odpt.org/en/dataset/c_bikeshare_gbfs-d-nationwide-bikeshare,,Creative Commons Attribution 4.0 International (CC BY 4.0),https://creativecommons.org/licenses/by/4.0/,,
docomo-cycle-niigata,Docomo Bike Share Niigata,/v2/networks/docomo-cycle-niigata,"[""DOCOMO BIKE SHARE, INC.""]",https://api-public.odpt.org/api/v4/gbfs/docomo-cycle/gbfs.json,37.9186,139.0488,新潟県 (Niigata),JP,,https://ckan.odpt.org/en/dataset/c_bikeshare_gbfs-d-nationwide-bikeshare,,Creative Commons Attribution 4.0 International (CC BY 4.0),https://creativecommons.org/licenses/by/4.0/,,
docomo-cycle-oita,Docomo Bike Share Ōita,/v2/networks/docomo-cycle-oita,"[""DOCOMO BIKE SHARE, INC.""]",https://api-public.odpt.org/api/v4/gbfs/docomo-cycle/gbfs.json,33.2393,131.6124,大分県 (Ōita),JP,,https://ckan.odpt.org/en/dataset/c_bikeshare_gbfs-d-nationwide-bikeshare,,Creative Commons Attribution 4.0 International (CC BY 4.0),https://creativecommons.org/licenses/by/4.0/,,
docomo-cycle-okayama,Docomo Bike Share Okayama,/v2/networks/docomo-cycle-okayama,"[""DOCOMO BIKE SHARE, INC.""]",https://api-public.odpt.org/api/v4/gbfs/docomo-cycle/gbfs.json,34.603,133.765,岡山県 (Okayama),JP,,https://ckan.odpt.org/en/dataset/c_bikeshare_gbfs-d-nationwide-bikeshare,,Creative Commons Attribution 4.0 International (CC BY 4.0),https://creativecommons.org/licenses/by/4.0/,,
docomo-cycle-okinawa,Docomo Bike Share Okinawa,/v2/networks/docomo-cycle-okinawa,"[""DOCOMO BIKE SHARE, INC.""]",https://api-public.odpt.org/api/v4/gbfs/docomo-cycle/gbfs.json,26.2097,127.6841,沖縄県 (Okinawa),JP,,https://ckan.odpt.org/en/dataset/c_bikeshare_gbfs-d-nationwide-bikeshare,,Creative Commons Attribution 4.0 International (CC BY 4.0),https://creativecommons.org/licenses/by/4.0/,,
docomo-cycle-osaka,Docomo Bike Share Osaka,/v2/networks/docomo-cycle-osaka,"[""DOCOMO BIKE SHARE, INC.""]",https://api-public.odpt.org/api/v4/gbfs/docomo-cycle/gbfs.json,34.693,135.5028,大阪府 (Osaka),JP,,https://ckan.odpt.org/en/dataset/c_bikeshare_gbfs-d-nationwide-bikeshare,,Creative Commons Attribution 4.0 International (CC BY 4.0),https://creativecommons.org/licenses/by/4.0/,,
docomo-cycle-shiga,Docomo Bike Share Shiga,/v2/networks/docomo-cycle-shiga,"[""DOCOMO BIKE SHARE, INC.""]",https://api-public.odpt.org/api/v4/gbfs/docomo-cycle/gbfs.json,35.0378,135.9801,滋賀県 (Shiga),JP,,https://ckan.odpt.org/en/dataset/c_bikeshare_gbfs-d-nationwide-bikeshare,,Creative Commons Attribution 4.0 International (CC BY 4.0),https://creativecommons.org/licenses/by/4.0/,,
docomo-cycle-tokyo,Docomo Bike Share Tokyo,/v2/networks/docomo-cycle-tokyo,"[""DOCOMO BIKE SHARE, INC.""]",https://api-public.odpt.org/api/v4/gbfs/docomo-cycle-tokyo/gbfs.json,35.6827,139.766,Tokyo,JP,,https://ckan.odpt.org/en/dataset/c_bikeshare_gbfs-d-bikeshare,,Creative Commons Attribution 4.0 International (CC BY 4.0),https://creativecommons.org/licenses/by/4.0/,,
docomo-cycle-yamanashi,Docomo Bike Share Yamanashi,/v2/networks/docomo-cycle-yamanashi,"[""DOCOMO BIKE SHARE, INC.""]",https://api-public.odpt.org/api/v4/gbfs/docomo-cycle/gbfs.json,35.6848,138.733,山梨県 (Yamanashi),JP,,https://ckan.odpt.org/en/dataset/c_bikeshare_gbfs-d-nationwide-bikeshare,,Creative Commons Attribution 4.0 International (CC BY 4.0),https://creativecommons.org/licenses/by/4.0/,,
donkey-gh,Donkey Republic - Gent,/v2/networks/donkey-gh,"[""Donkey Republic""]",https://stables.donkey.bike/api/public/gbfs/donkey_gh/gbfs,51.05,3.7303,Gent,BE,,,,,,,
dott-ibiza,Dott Ibiza,/v2/networks/dott-ibiza,"[""Dott""]",https://gbfs.api.ridedott.com/public/v2/ibiza/gbfs.json,38.91,1.4334,Ibiza,ES,,,,,,,
dott-murcia,Dott,/v2/networks/dott-murcia,"[""Dott""]",https://gbfs.api.ridedott.com/public/v2/murcia/gbfs.json,37.9872,-1.1287,Murcia,ES,,,,,,,
dott-tarragona,Dott Tarragona,/v2/networks/dott-tarragona,"[""Dott""]",https://gbfs.api.ridedott.com/public/v2/tarragona/gbfs.json,41.1178,1.2553,Tarragona,ES,,,,,,,
dott-tubingen,Dott Tübingen,/v2/networks/dott-tubingen,"[""Dott""]",https://gbfs.api.ridedott.com/public/v2/tubingen/gbfs.json,48.521,9.0534,Tübingen,DE,,,,,,,
dubai-careem-bike,Dubai Careem BIKE,/v2/networks/dubai-careem-bike,"[""Careem""]",https://dubai.publicbikesystem.net/customer/gbfs/v2/en/gbfs.json,25.1713,55.2324,Dubai,AE,,,,,,,
dublinbikes,dublinbikes,/v2/networks/dublinbikes,"[""JCDecaux""]",,53.3498053,-6.2603097,Dublin,IE,Cyclocity,https://developer.jcdecaux.com,,Open Licence,https://developer.jcdecaux.com/#/opendata/licence,,
e-motion-rovereto,e.motion,/v2/networks/e-motion-rovereto,"[""Comunicare S.r.l.""]",,45.88710661061543,11.042242751867644,Rovereto,IT,Bicincittà,https://www.bicincitta.com/frmLeStazioni.aspx?ID=189,,,,,
e-motion-trento,e.motion,/v2/networks/e-motion-trento,"[""Comunicare S.r.l.""]",,46.06643205823519,11.122145390351879,Trento,IT,Bicincittà,https://www.bicincitta.com/frmLeStazioni.aspx?ID=187,,,,,
easybike-didymoteicho,EasyBike,/v2/networks/easybike-didymoteicho,"[""Brainbox Technology"", ""Smoove SAS""]",,41.3502539849,26.4972960949,Didymoteicho,GR,EasyBike,,,,,,
easybike-glyfada,EasyBike,/v2/networks/easybike-glyfada,"[""Brainbox Technology"", ""Smoove SAS""]",,37.8715809825,23.7355544376,Glyfada,GR,EasyBike,,,,,,
easybike-igoumenitsa,EasyBike,/v2/networks/easybike-igoumenitsa,"[""Brainbox Technology"", ""Smoove SAS""]",,39.5005770633,20.2635206985,Igoumenitsa,GR,EasyBike,,,,,,
easybike-ioannina,EasyBike,/v2/networks/easybike-ioannina,"[""Brainbox Technology"", ""Smoove SAS""]",,39.6639818,20.8522784,Ioannina,GR,EasyBike,,,,,,
easybike-irakleio,EasyBike,/v2/networks/easybike-irakleio,"[""Brainbox Technology"", ""Smoove SAS""]",,35.338735,25.144213,Irakleio,GR,EasyBike,,,,,,
easybike-karditsa,EasyBike,/v2/networks/easybike-karditsa,"[""Brainbox Technology"", ""Smoove SAS""]",,39.3634604,21.9211192,Karditsa,GR,EasyBike,,,,,,
easybike-kinouria,EasyBike,/v2/networks/easybike-kinouria,"[""Brainbox Technology"", ""Smoove SAS""]",,37.1476704305,22.8933729935,Kinouria,GR,EasyBike,,,,,,
easybike-komotini,EasyBike,/v2/networks/easybike-komotini,"[""Brainbox Technology"", ""Smoove SAS""]",,41.117833,25.4041307,Komotini,GR,EasyBike,,,,,,
easybike-mani,EasyBike,/v2/networks/easybike-mani,"[""Brainbox Technology"", ""Smoove SAS""]",,41.4097472,26.4024952,Mani,GR,EasyBike,,,,,,
easybike-patra,EasyBike,/v2/networks/easybike-patra,"[""Brainbox Technology"", ""Smoove SAS""]",,38.2410966371,21.7259683418,Patra,GR,EasyBike,,,,,,
easybike-rethymno,EasyBike,/v2/networks/easybike-rethymno,"[""Brainbox Technology"", ""Smoove SAS""]",,35.3667571777,24.4832845736,Rethymno,GR,EasyBike,,,,,,
easybike-samos,EasyBike,/v2/networks/easybike-samos,"[""Brainbox Technology"", ""Smoove SAS""]",,37.754065919,26.9787850189,Samos,GR,EasyBike,,,,,,
ecobici,EcoBici,/v2/networks/ecobici,"[""5M2 S.A. DE C.V."", ""BKT BICIPÚBLICA S.A. DE C.V."", ""Lyft Inc.""]",https://gbfs.mex.lyftbikes.com/gbfs/gbfs.json,19.4326077,-99.133208,Cd de México,MX,,,,,,,
ecobici-buenos-aires,Ecobici,/v2/networks/ecobici-buenos-aires,"[""Tembici"", ""Itaú Argentina""]",https://buenosaires.publicbikesystem.net/customer/gbfs/v2/gbfs.json,-34.630665,-58.41156,Buenos Aires,AR,,,,,,,
edeka-gruenheide-mark,EDEKA Grünheide,/v2/networks/edeka-gruenheide-mark,"[""Nextbike GmbH""]",,52.4247,13.8203,Grünheide (Mark),DE,Nextbike,,,,,,
eifel,Eifel e-Bike,/v2/networks/eifel,"[""Nextbike GmbH""]",,50.5771,6.64673,Eifel e-Bike,DE,Nextbike,,,,,,
elpaso,El Paso BCycle,/v2/networks/elpaso,"[""BCycle, LLC""]",https://gbfs.bcycle.com/bcycle_elpaso/gbfs.json,31.76148,-106.48507,"El Paso, TX",US,BCycle,,,,,,
emobi-osijek,eMobi (Croatia),/v2/networks/emobi-osijek,"[""Nextbike GmbH""]",,45.554,18.6943,Osijek,HR,Nextbike,,,,,,
encicla,EnCicla,/v2/networks/encicla,"[""Sistema de Bicicletas Públicas del Valle de Aburrá""]",,6.2443,-75.5735,Medellin,CO,Encicla,,,,,,
enna,Enna,/v2/networks/enna,"[""Comunicare S.r.l.""]",,37.56342572664775,14.27973747253418,Enna,IT,Bicincittà,https://www.bicincitta.com/frmLeStazioni.aspx?ID=163,,,,,
eoulling-sejong,어울링 (Eoulling),/v2/networks/eoulling-sejong,"[""Sejong City Transportation Corporation""]",,36.4901,127.2829,세종 (Sejong),KR,,,,,,,
famose,Fa.Mo.Se,/v2/networks/famose,"[""Comuni di Senigallia e Mondolfo"", ""TIER Mobility SE""]",https://gbfs.nextbike.net/maps/gbfs/v2/nextbike_fa/gbfs.json,43.7603,13.1139,Senigallia,IT,,,,,,,
figas,Figas,/v2/networks/figas,"[""Município de Figueira da Foz"", ""Wegoshare, Lda""]",,40.1548,-8.8613,Figueira da Foz,PT,,,,,,,
foli,Fölläri bikes,/v2/networks/foli,"[""Turku Region Traffic Föli"", ""DonkeyRepublic Admin ApS""]",https://stables.donkey.bike/api/public/gbfs/2/donkey_turku/gbfs.json,60.4506,22.2666,Turku,FI,,,,,,,
fortworth,Trinity Metro Bikes,/v2/networks/fortworth,"[""Trinity Metro"", ""Lyft Inc.""]",https://fortworth.publicbikesystem.net/customer/gbfs/v2/gbfs.json,32.7516,-97.32888,"Fort Worth, TX",US,,,,,,,
free-bike-sharing,FRee Bike sharing,/v2/networks/free-bike-sharing,"[""Comunicare S.r.l.""]",,41.645081,13.342123,Frosinone,IT,Bicincittà,https://www.bicincitta.com/frmLeStazioni.aspx?ID=53,,,,,
frelo-freiburg,Frelo,/v2/networks/frelo-freiburg,"[""Nextbike GmbH""]",,47.9958,7.84453,Freiburg,DE,Nextbike,,,,,,
galway,TFI Bikes,/v2/networks/galway,"[""The National Transport Authority""]",,53.2783491544,-9.05069143207,Galway,IE,TFI Bikes,,,,,,
ganxeta-reus,Ganxeta,/v2/networks/ganxeta-reus,"[""REUS MOBILITAT I SERVEIS, S.A. (RMS)""]",,41.1589,1.10623,Reus,ES,,,,,,,
gbici,Gbici,/v2/networks/gbici,"[""Instituto Tecnológico de Castilla y León (ITCL)""]",,40.308,-3.7301,Getafe,ES,,,,,,,
gijon,Gijón Bici,/v2/networks/gijon,"[""Citybike España S.L.U."", ""Fifteen SAS""]",,43.5396116,-5.6663604,Gijón,ES,Fifteen,,,,,,
gimme-bike,Gimme Bike,/v2/networks/gimme-bike,"[""Comunicare S.r.l.""]",,45.8183902,8.823913,Varese,IT,Bicincittà,https://www.bicincitta.com/frmLeStazioni.aspx?ID=50,,,,,
gira,Gira,/v2/networks/gira,"[""EMEL""]",,38.724954,-9.149334,Lisbon,PT,Gira,,,,,,
girocleta,Girocleta,/v2/networks/girocleta,"[""ICNITA S.L.""]",,41.9794005,2.8214264,Girona,ES,Emovity,,,,,,
gobiki,Biki,/v2/networks/gobiki,"[""Bikeshare Hawaii Island""]",https://hon.publicbikesystem.net/customer/ube/gbfs/v1/en/gbfs.json,21.3043,-157.856,Honolulu,US,,,,,,,
goodbike,GoodBike,/v2/networks/goodbike,"[""Bicincitta Italia S.r.l.""]",,45.4064349,11.8767611,Padova,IT,Weelo,,,,,,
grad-drnis-drnis,Nextbike,/v2/networks/grad-drnis-drnis,"[""Nextbike GmbH""]",,43.8425,16.1197,Drniš,HR,Nextbike,,,,,,
grad-ivanic-grad-ivanic-grad,Grad Ivanić-Grad,/v2/networks/grad-ivanic-grad-ivanic-grad,"[""Nextbike GmbH""]",,45.7062,16.3919,Ivanic Grad,HR,Nextbike,,,,,,
grad-karlovac-karlovac,Grad Karlovac,/v2/networks/grad-karlovac-karlovac,"[""Nextbike GmbH""]",,45.4905,15.5503,Karlovac,HR,Nextbike,,,,,,
grad-makarska-makarska,Grad Makarska,/v2/networks/grad-makarska-makarska,"[""Nextbike GmbH""]",,43.2992,17.0184,Makarska,HR,,,,,,,
grad-metkovic-metkovic,Grad Metković,/v2/networks/grad-metkovic-metkovic,"[""Nextbike GmbH""]",,43.0654,17.642,Metković,HR,,,,,,,
grad-sibenik-sibenik,Grad Šibenik,/v2/networks/grad-sibenik-sibenik,"[""Nextbike GmbH""]",,43.733,15.8982,Šibenik,HR,Nextbike,,,,,,
grad-sisak-sisak,Grad Sisak,/v2/networks/grad-sisak-sisak,"[""Nextbike GmbH""]",,45.4875,16.3753,Sisak,HR,Nextbike,,,,,,
grad-slavonski-brod-slavonski-brod,Grad Slavonski Brod,/v2/networks/grad-slavonski-brod-slavonski-brod,"[""Nextbike GmbH""]",,45.1656,18.0183,Slavonski Brod,HR,Nextbike,,,,,,
grad-split,Grad Split (Croatia),/v2/networks/grad-split,"[""Nextbike GmbH""]",,43.5162,16.4637,Split,HR,Nextbike,,,,,,
grad-split-opcina-hrvace,Grad Split (Croatia),/v2/networks/grad-split-opcina-hrvace,"[""Nextbike GmbH""]",,43.7553,16.6197,Općina Hrvace,HR,Nextbike,,,,,,
grad-split-opcina-klis,Grad Split (Croatia),/v2/networks/grad-split-opcina-klis,"[""Nextbike GmbH""]",,43.5605,16.5269,Općina Klis,HR,Nextbike,,,,,,
grad-split-opcina-otok-dalmatinski,Grad Split (Croatia),/v2/networks/grad-split-opcina-otok-dalmatinski,"[""Nextbike GmbH""]",,43.6889,16.7361,Općina Otok Dalmatinski,HR,Nextbike,,,,,,
grad-split-podstrana,Grad Split (Croatia),/v2/networks/grad-split-podstrana,"[""Nextbike GmbH""]",,43.4934,16.5598,Podstrana,HR,Nextbike,,,,,,
grad-split-sinj,Grad Split (Croatia),/v2/networks/grad-split-sinj,"[""Nextbike GmbH""]",,43.7031,16.6364,Sinj,HR,Nextbike,,,,,,
grad-split-solin,Grad Split (Croatia),/v2/networks/grad-split-solin,"[""Nextbike GmbH""]",,43.5441,16.4833,Solin,HR,Nextbike,,,,,,
grad-split-trogir,Grad Split (Croatia),/v2/networks/grad-split-trogir,"[""Nextbike GmbH""]",,43.5234,16.2476,Trogir,HR,Nextbike,,,,,,
grad-velika-gorica-velika-gorica,Grad Velika Gorica,/v2/networks/grad-velika-gorica-velika-gorica,"[""Nextbike GmbH""]",,45.7161,16.0683,Velika Gorica,HR,Nextbike,,,,,,
grad-vukovar,Grad Vukovar (Croatia),/v2/networks/grad-vukovar,"[""Nextbike GmbH""]",,45.3575,18.9895,Vukovar,HR,Nextbike,,,,,,
grad-zadar-zadar,Grad Zadar,/v2/networks/grad-zadar-zadar,"[""Nextbike GmbH""]",,44.0058,15.2183,Zadar,HR,Nextbike,,,,,,
grad-zapresic,Grad Zaprešić (Croatia),/v2/networks/grad-zapresic,"[""Nextbike GmbH""]",,45.8622,15.8049,Zaprešić,HR,Nextbike,,,,,,
greenbikeslc,GREENbike,/v2/networks/greenbikeslc,"[""BCycle, LLC""]",https://gbfs.bcycle.com/bcycle_greenbikeslc/gbfs.json,40.76745,-111.88736,Salt Lake City,US,BCycle,,,,,,
greenville,Greenville BCycle,/v2/networks/greenville,"[""BCycle, LLC""]",https://gbfs.bcycle.com/bcycle_greenville/gbfs.json,34.85261759999999,-82.3940104,"Greenville, SC",US,BCycle,,,,,,
greifswald,StadtRad Greifswald,/v2/networks/greifswald,"[""Nextbike GmbH""]",,54.0961,13.3787,Greifswald (StadtRad),DE,Nextbike,,,,,,
hellocycling-aichi,HELLO CYCLING Aichi,/v2/networks/hellocycling-aichi,"[""OpenStreet Corp.""]",https://api-public.odpt.org/api/v4/gbfs/hellocycling/gbfs.json,35.1827,136.9096,愛知県 (Aichi),JP,,https://ckan.odpt.org/dataset/c_bikeshare_gbfs-openstreet,,Creative Commons Attribution 4.0 International (CC BY 4.0),https://creativecommons.org/licenses/by/4.0/,,
hellocycling-chiba,HELLO CYCLING Chiba,/v2/networks/hellocycling-chiba,"[""OpenStreet Corp.""]",https://api-public.odpt.org/api/v4/gbfs/hellocycling/gbfs.json,35.6687,140.0201,千葉県 (Chiba),JP,,https://ckan.odpt.org/dataset/c_bikeshare_gbfs-openstreet,,Creative Commons Attribution 4.0 International (CC BY 4.0),https://creativecommons.org/licenses/by/4.0/,,
hellocycling-ehime,HELLO CYCLING Ehime,/v2/networks/hellocycling-ehime,"[""OpenStreet Corp.""]",https://api-public.odpt.org/api/v4/gbfs/hellocycling/gbfs.json,33.8445,132.76913,愛媛県 (Ehime),JP,,https://ckan.odpt.org/dataset/c_bikeshare_gbfs-openstreet,,Creative Commons Attribution 4.0 International (CC BY 4.0),https://creativecommons.org/licenses/by/4.0/,,
hellocycling-fukuoka,HELLO CYCLING Fukuoka,/v2/networks/hellocycling-fukuoka,"[""OpenStreet Corp.""]",https://api-public.odpt.org/api/v4/gbfs/hellocycling/gbfs.json,33.8823,130.8759,福岡県 (Fukuoka),JP,,https://ckan.odpt.org/dataset/c_bikeshare_gbfs-openstreet,,Creative Commons Attribution 4.0 International (CC BY 4.0),https://creativecommons.org/licenses/by/4.0/,,
hellocycling-gifu,HELLO CYCLING Gifu,/v2/networks/hellocycling-gifu,"[""OpenStreet Corp.""]",https://api-public.odpt.org/api/v4/gbfs/hellocycling/gbfs.json,35.3348,137.1236,岐阜県 (Gifu),JP,,https://ckan.odpt.org/dataset/c_bikeshare_gbfs-openstreet,,Creative Commons Attribution 4.0 International (CC BY 4.0),https://creativecommons.org/licenses/by/4.0/,,
hellocycling-hiroshima,HELLO CYCLING Hiroshima,/v2/networks/hellocycling-hiroshima,"[""OpenStreet Corp.""]",https://api-public.odpt.org/api/v4/gbfs/hellocycling/gbfs.json,34.40061,133.19824,広島県 (Hiroshima),JP,,https://ckan.odpt.org/dataset/c_bikeshare_gbfs-openstreet,,Creative Commons Attribution 4.0 International (CC BY 4.0),https://creativecommons.org/licenses/by/4.0/,,
hellocycling-hyougo,HELLO CYCLING Hyougo,/v2/networks/hellocycling-hyougo,"[""OpenStreet Corp.""]",https://api-public.odpt.org/api/v4/gbfs/hellocycling/gbfs.json,34.7356,135.3697,兵庫県 (Hyougo),JP,,https://ckan.odpt.org/dataset/c_bikeshare_gbfs-openstreet,,Creative Commons Attribution 4.0 International (CC BY 4.0),https://creativecommons.org/licenses/by/4.0/,,
hellocycling-ibaraki,HELLO CYCLING Ibaraki,/v2/networks/hellocycling-ibaraki,"[""OpenStreet Corp.""]",https://api-public.odpt.org/api/v4/gbfs/hellocycling/gbfs.json,36.0852,140.2008,茨城県 (Ibaraki),JP,,https://ckan.odpt.org/dataset/c_bikeshare_gbfs-openstreet,,Creative Commons Attribution 4.0 International (CC BY 4.0),https://creativecommons.org/licenses/by/4.0/,,
hellocycling-iwate,HELLO CYCLING Iwate,/v2/networks/hellocycling-iwate,"[""OpenStreet Corp.""]",https://api-public.odpt.org/api/v4/gbfs/hellocycling/gbfs.json,39.6992,141.1343,岩手県 (Iwate),JP,,https://ckan.odpt.org/dataset/c_bikeshare_gbfs-openstreet,,Creative Commons Attribution 4.0 International (CC BY 4.0),https://creativecommons.org/licenses/by/4.0/,,
hellocycling-kagawa,HELLO CYCLING Kagawa,/v2/networks/hellocycling-kagawa,"[""OpenStreet Corp.""]",https://api-public.odpt.org/api/v4/gbfs/hellocycling/gbfs.json,34.4898,134.26,香川県 (Kagawa),JP,,https://ckan.odpt.org/dataset/c_bikeshare_gbfs-openstreet,,Creative Commons Attribution 4.0 International (CC BY 4.0),https://creativecommons.org/licenses/by/4.0/,,
hellocycling-kanagawa,HELLO CYCLING Kanagawa,/v2/networks/hellocycling-kanagawa,"[""OpenStreet Corp.""]",https://api-public.odpt.org/api/v4/gbfs/hellocycling/gbfs.json,35.3629,139.4677,神奈川県 (Kanagawa),JP,,https://ckan.odpt.org/dataset/c_bikeshare_gbfs-openstreet,,Creative Commons Attribution 4.0 International (CC BY 4.0),https://creativecommons.org/licenses/by/4.0/,,
hellocycling-kumamoto,HELLO CYCLING Kumamoto,/v2/networks/hellocycling-kumamoto,"[""OpenStreet Corp.""]",https://api-public.odpt.org/api/v4/gbfs/hellocycling/gbfs.json,32.21207,130.75388,熊本県 (Kumamoto),JP,,https://ckan.odpt.org/dataset/c_bikeshare_gbfs-openstreet,,Creative Commons Attribution 4.0 International (CC BY 4.0),https://creativecommons.org/licenses/by/4.0/,,
hellocycling-kyoto,HELLO CYCLING Kyoto,/v2/networks/hellocycling-kyoto,"[""OpenStreet Corp.""]",https://api-public.odpt.org/api/v4/gbfs/hellocycling/gbfs.json,35.01897,135.75747,京都府 (Kyoto),JP,,https://ckan.odpt.org/dataset/c_bikeshare_gbfs-openstreet,,Creative Commons Attribution 4.0 International (CC BY 4.0),https://creativecommons.org/licenses/by/4.0/,,
hellocycling-nagano,HELLO CYCLING Nagano,/v2/networks/hellocycling-nagano,"[""OpenStreet Corp.""]",https://api-public.odpt.org/api/v4/gbfs/hellocycling/gbfs.json,36.2395,137.9697,長野県 (Nagano),JP,,https://ckan.odpt.org/dataset/c_bikeshare_gbfs-openstreet,,Creative Commons Attribution 4.0 International (CC BY 4.0),https://creativecommons.org/licenses/by/4.0/,,
hellocycling-nara,HELLO CYCLING Nara,/v2/networks/hellocycling-nara,"[""OpenStreet Corp.""]",https://api-public.odpt.org/api/v4/gbfs/hellocycling/gbfs.json,34.6819,135.8007,奈良県 (Nara),JP,,https://ckan.odpt.org/dataset/c_bikeshare_gbfs-openstreet,,Creative Commons Attribution 4.0 International (CC BY 4.0),https://creativecommons.org/licenses/by/4.0/,,
hellocycling-okinawa,HELLO CYCLING Okinawa,/v2/networks/hellocycling-okinawa,"[""OpenStreet Corp.""]",https://api-public.odpt.org/api/v4/gbfs/hellocycling/gbfs.json,26.2127,127.6828,沖縄県 (Okinawa),JP,,https://ckan.odpt.org/dataset/c_bikeshare_gbfs-openstreet,,Creative Commons Attribution 4.0 International (CC BY 4.0),https://creativecommons.org/licenses/by/4.0/,,
hellocycling-osaka,HELLO CYCLING Osaka,/v2/networks/hellocycling-osaka,"[""OpenStreet Corp.""]",https://api-public.odpt.org/api/v4/gbfs/hellocycling/gbfs.json,34.6917,135.5091,大阪府 (Osaka),JP,,https://ckan.odpt.org/dataset/c_bikeshare_gbfs-openstreet,,Creative Commons Attribution 4.0 International (CC BY 4.0),https://creativecommons.org/licenses/by/4.0/,,
hellocycling-saga,HELLO CYCLING Saga,/v2/networks/hellocycling-saga,"[""OpenStreet Corp.""]",https://api-public.odpt.org/api/v4/gbfs/hellocycling/gbfs.json,33.2622,130.2988,佐賀県 (Saga),JP,,https://ckan.odpt.org/dataset/c_bikeshare_gbfs-openstreet,,Creative Commons Attribution 4.0 International (CC BY 4.0),https://creativecommons.org/licenses/by/4.0/,,
hellocycling-saitama,HELLO CYCLING Saitama,/v2/networks/hellocycling-saitama,"[""OpenStreet Corp.""]",https://api-public.odpt.org/api/v4/gbfs/hellocycling/gbfs.json,35.86017,139.64347,埼玉県 (Saitama),JP,,https://ckan.odpt.org/dataset/c_bikeshare_gbfs-openstreet,,Creative Commons Attribution 4.0 International (CC BY 4.0),https://creativecommons.org/licenses/by/4.0/,,
hellocycling-shizuoka,HELLO CYCLING Shizuoka,/v2/networks/hellocycling-shizuoka,"[""OpenStreet Corp.""]",https://api-public.odpt.org/api/v4/gbfs/hellocycling/gbfs.json,34.9769,138.3855,静岡県 (Shizuoka),JP,,https://ckan.odpt.org/dataset/c_bikeshare_gbfs-openstreet,,Creative Commons Attribution 4.0 International (CC BY 4.0),https://creativecommons.org/licenses/by/4.0/,,
hellocycling-tochigi,HELLO CYCLING Tochigi,/v2/networks/hellocycling-tochigi,"[""OpenStreet Corp.""]",https://api-public.odpt.org/api/v4/gbfs/hellocycling/gbfs.json,36.75349,139.6115,栃木県 (Tochigi),JP,,https://ckan.odpt.org/dataset/c_bikeshare_gbfs-openstreet,,Creative Commons Attribution 4.0 International (CC BY 4.0),https://creativecommons.org/licenses/by/4.0/,,
hellocycling-tokyo,HELLO CYCLING Tokyo,/v2/networks/hellocycling-tokyo,"[""OpenStreet Corp.""]",https://api-public.odpt.org/api/v4/gbfs/hellocycling/gbfs.json,35.671,139.765,東京都 (Tokyo),JP,,https://ckan.odpt.org/dataset/c_bikeshare_gbfs-openstreet,,Creative Commons Attribution 4.0 International (CC BY 4.0),https://creativecommons.org/licenses/by/4.0/,,
heraeus-hanau,Heraeus Hanau,/v2/networks/heraeus-hanau,"[""Heraeus Holding GmbH""]",,50.1387,8.94429,Hanau,DE,Nextbike,,,,,,
hi-bike-fort-william,Hi-Bike Fort William,/v2/networks/hi-bike-fort-william,"[""HITRANS"", ""Wegoshare, Lda""]",,56.8171,-5.1054,Fort William,GB,,,True,,,,
hi-bike-inverness,Hi-Bike Inverness,/v2/networks/hi-bike-inverness,"[""HITRANS"", ""Wegoshare, Lda""]",,57.4767,-4.2269,Inverness,GB,,,True,,,,
hibike,Hibike,/v2/networks/hibike,"[""Bikeshare Hawaii Island""]",https://kona.publicbikesystem.net/customer/ube/gbfs/v1/en/gbfs.json,19.6417,-155.9962,Kailua-Kona,US,,,,,,,
ibizi-ibiza-city,ibizi,/v2/networks/ibizi-ibiza-city,"[""Nextbike GmbH""]",,38.9066,1.42046,Ibiza-City,ES,Nextbike,,,,,,
idecycle,IDEcycle,/v2/networks/idecycle,"[""Cykleo SAS""]",,43.2957547,-0.3685668,Pau,FR,Cykleo,,,,,,
indego,Indego,/v2/networks/indego,"[""City of Philadelphia"", ""Bicycle Transit Systems"", ""BCycle, LLC""]",https://gbfs.bcycle.com/bcycle_indego/gbfs.json,39.95378,-75.16374,"Philadelphia, PA",US,BCycle,,,,,,
indiana-pacers-bikeshare,Indiana Pacers Bikeshare,/v2/networks/indiana-pacers-bikeshare,"[""BCycle, LLC""]",https://gbfs.bcycle.com/bcycle_pacersbikeshare/gbfs.json,39.76593,-86.16216,"Indianapolis, IN",US,BCycle,,,,,,
infralobo,Smart Bikes by Infralobo,/v2/networks/infralobo,"[""Infralobo"", ""Wegoshare, Lda""]",,37.055,-8.0643,Vale do Lobo,PT,,,,,,,
integrabike,Integrabike,/v2/networks/integrabike,"[""Prefeiture de Sorocaba"", ""Urbes""]",,-23.5015,-47.4526,Sorocaba,BR,Mobhis,,,,,,
jackson,Jackson County BCycle,/v2/networks/jackson,"[""BCycle, LLC""]",https://gbfs.bcycle.com/bcycle_jacksoncounty/gbfs.json,42.2462,-84.4031,"Jackson, MI",US,BCycle,,,,,,
jastrebarsko-jastrebarsko,Nextbike,/v2/networks/jastrebarsko-jastrebarsko,"[""Nextbike GmbH""]",,45.6692,15.6541,Jastrebarsko,HR,Nextbike,,,,,,
jesinbici,JesinBici,/v2/networks/jesinbici,"[""Comunicare S.r.l.""]",,43.522601,13.244448,Jesi,IT,Bicincittà,https://www.bicincitta.com/frmLeStazioni.aspx?ID=236,,,,,
joco-new-york,JOCO New York,/v2/networks/joco-new-york,"[""BEAM BIKE CORP."", ""JOCO""]",,40.7572,-73.9859,New York,US,,,True,,,,
karuvelo,Karu'Vélo,/v2/networks/karuvelo,"[""Ecovelo""]",https://api.gbfs.ecovelo.mobi/karu/gbfs.json,16.2411,-61.5331,Pointe-à-Pitre,FR,Ecovelo,,True,,,,
kolumbus-rogaland,Bysykkelen,/v2/networks/kolumbus-rogaland,"[""Kolumbus""]",,58.9689,5.731,Rogaland,NO,kolumbus,,True,,,,
kotobike,Kotobike,/v2/networks/kotobike,"[""QBEI.inc""]",https://app.kotobike.jp/api/exposed/v2/gbfs/gbfs.json,35.0115,135.7518,京都 (Kyoto),JP,,,,,,,
kuitunbike,Kuitun Bike,/v2/networks/kuitunbike,[],,44.429,84.9009,奎屯市 (Kuitun),CN,,,,,,,
kvb-rad-koln,KVB Rad,/v2/networks/kvb-rad-koln,"[""Nextbike GmbH""]",,50.9429,6.95649,Köln,DE,Nextbike,,,,,,
lastenvelo-freiburg,LastenVelo Freiburg,/v2/networks/lastenvelo-freiburg,"[""LastenVelo Freiburg e.V.""]",,47.9981,7.8439,Freiburg,DE,,,,,,,
le-marcel,Le Marcel,/v2/networks/le-marcel,"[""Ecovelo""]",https://api.gbfs.ecovelo.mobi/lemarcel/gbfs.json,48.2997,4.0792,Troyes,FR,Ecovelo,,True,,,,
le-velo,LeVélo,/v2/networks/le-velo,"[""LeVélo AMP Métropole"", ""Ville de Marseille"", ""Fifteen SAS""]",https://api.omega.fifteen.eu/gbfs/2.2/marseille/en/gbfs.json?&key=MjE0ZDNmMGEtNGFkZS00M2FlLWFmMWItZGNhOTZhMWQyYzM2,43.296482,5.36978,Marseille,FR,,https://www.data.gouv.fr/fr/datasets/velos-a-assistance-electrique-en-libre-service-levelo-sur-marseille/,,Open Data Commons Open Database License (ODbL),http://opendatacommons.org/licenses/odbl/summary/,,
le-velo-star,LE vélo Star,/v2/networks/le-velo-star,"[""Keolis"", ""Rennes Metropole""]",,48.114167,-1.680833,Rennes,FR,Keolis,https://data.explore.star.fr/explore/dataset/vls-stations-etat-tr/,,,,,
lecce,lecce,/v2/networks/lecce,"[""Comunicare S.r.l.""]",,40.35040350928062,18.177824020385742,Lecce,IT,Bicincittà,https://www.bicincitta.com/frmLeStazioni.aspx?ID=159,,,,,
lecco,Bicincittà,/v2/networks/lecco,"[""Comunicare S.r.l.""]",,45.8565698,9.397670399999999,Lecco,IT,Bicincittà,https://www.bicincitta.com/frmLeStazioni.aspx?ID=49,,,,,
li-bia-velo,Li bia velo,/v2/networks/li-bia-velo,"[""JCDecaux""]",,50.465328,4.867665,Namur,BE,Cyclocity,https://developer.jcdecaux.com,,Open Licence,https://developer.jcdecaux.com/#/opendata/licence,,
libelo,Libélo,/v2/networks/libelo,"[""PBSC Urban Solutions""]",https://valencefr.publicbikesystem.net/ube/gbfs/v1/,44.922726,4.905634,Valence,FR,,,,,,,
lime-portland,Lime Portland,/v2/networks/lime-portland,"[""Lime""]",https://data.lime.bike/api/partners/v2/gbfs/portland/gbfs.json,45.5152,-122.6784,"Portland, OR",US,,,,,,,
lime-san-francisco,Lime San Francisco,/v2/networks/lime-san-francisco,"[""Lime""]",https://data.lime.bike/api/partners/v2/gbfs/san_francisco/gbfs.json,37.7749,-122.4194,"San Francisco, CA",US,,,,,,,
lime-seattle,Lime Seattle,/v2/networks/lime-seattle,"[""Lime""]",https://data.lime.bike/api/partners/v2/gbfs/seattle/gbfs.json,47.6062,-122.3321,"Seattle, WA",US,,,,,,,
limerick,TFI Bikes,/v2/networks/limerick,"[""The National Transport Authority""]",,52.668746,-8.627809,Limerick,IE,TFI Bikes,,,,,,
lincoln,BikeLNK,/v2/networks/lincoln,"[""BCycle, LLC""]",https://gbfs.bcycle.com/bcycle_bikelnk/gbfs.json,40.8087,-96.7075,"Lincoln, NE",US,BCycle,,,,,,
linkbike-penang,LinkBike,/v2/networks/linkbike-penang,"[""FAST RENT BIKE (PG) Sdn. Bhd""]",,5.4192,100.3281,Penang,MY,,,,,,,
longanoinbici,LonganoinBici,/v2/networks/longanoinbici,"[""Comunicare S.r.l.""]",,38.149812517944284,15.212116241455078,Barcellona Pozzo di Gotto,IT,Bicincittà,https://www.bicincitta.com/frmLeStazioni.aspx?ID=140,,,,,
lovelolibreservice,Lovélo Libre Service,/v2/networks/lovelolibreservice,"[""Citybike Normandie"", ""INURBA Mobility""]",https://gbfs.urbansharing.com/lovelolibreservice.fr/gbfs.json,49.4432552,1.0999821,Rouen,FR,,,,,,,
lovesharing-canary-islands-fuerteventura,Lovesharing (Canary Islands),/v2/networks/lovesharing-canary-islands-fuerteventura,"[""Nextbike GmbH""]",,28.3584,-14.064,Fuerteventura,ES,Nextbike,,,,,,
lovesharing-canary-islands-gran-canaria,Lovesharing (Canary Islands),/v2/networks/lovesharing-canary-islands-gran-canaria,"[""Nextbike GmbH""]",,27.8154,-15.5182,Gran Canaria,ES,Nextbike,,,,,,
lovesharing-canary-islands-lanzarote,Lovesharing (Canary Islands),/v2/networks/lovesharing-canary-islands-lanzarote,"[""Nextbike GmbH""]",,29.0491,-13.5729,Lanzarote,ES,Nextbike,,,,,,
lundahoj,Lundahoj,/v2/networks/lundahoj,"[""JCDecaux""]",,55.7046601,13.1910073,Lund,SE,Cyclocity,https://developer.jcdecaux.com,,Open Licence,https://developer.jcdecaux.com/#/opendata/licence,,
lviv-odessa,Nextbike,/v2/networks/lviv-odessa,"[""Nextbike GmbH""]",,46.463,30.7042,Odessa,UA,Nextbike,,,,,,
madison,BCycle,/v2/networks/madison,"[""BCycle, LLC""]",https://gbfs.bcycle.com/bcycle_madison/gbfs.json,43.07571,-89.38527,"Madison, WI",US,BCycle,,,,,,
malmobybike,Malmö by bike,/v2/networks/malmobybike,"[""ClearChannel""]",,55.605,13.0038,Malmö,SE,SmartBike,,,,,,
manerba-in-bici,Manerba in Bici,/v2/networks/manerba-in-bici,"[""Comunicare S.r.l.""]",,45.561179,10.559406,Manerba del Garda,IT,Bicincittà,https://www.bicincitta.com/frmLeStazioni.aspx?ID=102,,,,,
mar-e-bici,Mar e Bici,/v2/networks/mar-e-bici,"[""Comunicare S.r.l.""]",,42.805855,10.196514,Marciana Marina,IT,Bicincittà,https://www.bicincitta.com/frmLeStazioni.aspx?ID=90,,,,,
marseillan,Marseillan vélo libre-service,/v2/networks/marseillan,"[""Ecovelo""]",https://api.gbfs.ecovelo.mobi/marseillan/gbfs.json,43.3572,3.5283,Marseillan,FR,Ecovelo,,,,,,
mbajk,MBajk,/v2/networks/mbajk,"[""JCDecaux""]",,46.5547,15.6459,Maribor,SI,Cyclocity,https://developer.jcdecaux.com,,Open Licence,https://developer.jcdecaux.com/#/opendata/licence,,
mcallen,RGV BCycle,/v2/networks/mcallen,"[""BCycle, LLC""]",https://gbfs.bcycle.com/bcycle_mcallen/gbfs.json,26.20438,-98.2261,"McAllen, TX",US,BCycle,,,,,,
medina-careem-bike,Medina Careem BIKE,/v2/networks/medina-careem-bike,"[""Careem""]",https://dubai.publicbikesystem.net/customer/gbfs/v2/en/gbfs.json,24.4682,39.612,Medina,SA,,,,,,,
meglio-in-bici,Meglio in Bici,/v2/networks/meglio-in-bici,"[""Comunicare S.r.l.""]",,45.520541,9.341984,Cernusco sul Naviglio - Pioltello - Carugate,IT,Bicincittà,https://www.bicincitta.com/frmLeStazioni.aspx?ID=121,,,,,
mein-konrad-konstanz,Mein konrad,/v2/networks/mein-konrad-konstanz,"[""Nextbike GmbH""]",,47.6732,9.1663,Konstanz,DE,Nextbike,,,,,,
meiob,meioB,/v2/networks/meiob,"[""CIM Médio Tejo""]",,39.6024,-8.4069,Médio Tejo,PT,,,,,,,
memphis,Explore Bike Share,/v2/networks/memphis,"[""BCycle, LLC""]",https://gbfs.bcycle.com/bcycle_memphis/gbfs.json,35.1486,-90.045,"Memphis, TN",US,BCycle,,,,,,
metro-bike-share,Metro Bike Share,/v2/networks/metro-bike-share,"[""Los Angeles County Metropolitan Transportation Authority (Metro)"", ""Bicycle Transit Systems"", ""BCycle, LLC""]",https://gbfs.bcycle.com/bcycle_lametro/gbfs.json,34.04855,-118.25905,"Los Angeles, CA",US,BCycle,,,,,,
metropolradruhr-bochum,metropolradruhr,/v2/networks/metropolradruhr-bochum,"[""Nextbike GmbH""]",,51.4813,7.2133,Bochum,DE,Nextbike,,,,,,
metropolradruhr-bottrop,metropolradruhr,/v2/networks/metropolradruhr-bottrop,"[""Nextbike GmbH""]",,51.5263,6.94611,Bottrop,DE,Nextbike,,,,,,
metropolradruhr-dortmund,metropolradruhr,/v2/networks/metropolradruhr-dortmund,"[""Nextbike GmbH""]",,51.5141,7.46255,Dortmund,DE,Nextbike,,,,,,
metropolradruhr-duisburg,metropolradruhr,/v2/networks/metropolradruhr-duisburg,"[""Nextbike GmbH""]",,51.4487,6.77513,Duisburg,DE,Nextbike,,,,,,
metropolradruhr-essen,metropolradruhr,/v2/networks/metropolradruhr-essen,"[""Nextbike GmbH""]",,51.4425,7.02301,Essen,DE,Nextbike,,,,,,
metropolradruhr-gelsenkirchen,metropolradruhr,/v2/networks/metropolradruhr-gelsenkirchen,"[""Nextbike GmbH""]",,51.5404,7.07039,Gelsenkirchen,DE,Nextbike,,,,,,
metropolradruhr-hamm,metropolradruhr,/v2/networks/metropolradruhr-hamm,"[""Nextbike GmbH""]",,51.6775,7.84836,Hamm,DE,Nextbike,,,,,,
metropolradruhr-herne,metropolradruhr,/v2/networks/metropolradruhr-herne,"[""Nextbike GmbH""]",,51.5363,7.21493,Herne,DE,Nextbike,,,,,,
metropolradruhr-mulheim-adr,metropolradruhr,/v2/networks/metropolradruhr-mulheim-adr,"[""Nextbike GmbH""]",,51.4308,6.87401,Mülheim a.d.R.,DE,Nextbike,,,,,,
metropolradruhr-oberhausen,metropolradruhr,/v2/networks/metropolradruhr-oberhausen,"[""Nextbike GmbH""]",,51.4936,6.85169,Oberhausen,DE,Nextbike,,,,,,
metrorower,Metrorower,/v2/networks/metrorower,"[""Górnośląsko-Zagłębiowska Metropolia"", ""Nextbike GZM""]",https://gbfs.nextbike.net/maps/gbfs/v2/nextbike_zz/gbfs.json,50.2664,19.0217,Górnośląsko-Zagłębiowska Metropolia,PL,Nextbike,,,,,,
mibici-guadalajara,MIBICI,/v2/networks/mibici-guadalajara,"[""BKT bici publica S.A. de C.V."", ""PBSC Urban Solutions""]",https://guad.publicbikesystem.net/ube/gbfs/v1/,20.6737883,-103.3704325,Guadalajara,MX,,,,,,,
mibicitubici,Mi bici tu bici,/v2/networks/mibicitubici,"[""Mobilicidade Tecnologia LTD"", ""Municipalidad de Rosario""]",https://www.mibicitubici.gob.ar/opendata/gbfs.json,-32.95,-60.65,Rosario,AR,,,,,,,
mibisivalencia,MIBISI,/v2/networks/mibisivalencia,"[""Movilidad Urbana Sostenible SLU""]",,39.4745,-0.4189,"Valencia, área metropolitana",ES,,,,,,,"[{""tag"": ""horta-sud-en-bici"", ""meta"": {""city"": ""Aldaia, Alaquàs, Quart de Poblet, Xirivella"", ""country"": ""ES"", ""name"": ""Horta Sud en bici"", ""latitude"": 39.4696, ""longitude"": -0.4605}}, {""tag"": ""xufabike"", ""meta"": {""city"": ""Alboraia"", ""country"": ""ES"", ""name"": ""XufaBike"", ""latitude"": 39.4988, ""longitude"": -0.3511}}, {""tag"": ""bicimeliana"", ""meta"": {""city"": ""Meliana"", ""country"": ""ES"", ""name"": ""BiciMeliana"", ""latitude"": 39.5285, ""longitude"": -0.348}}, {""tag"": ""carraixet-bici"", ""meta"": {""city"": ""Alfara del Patriarca, Foios, Bonrepòs i Mirambell, Vinales"", ""country"": ""ES"", ""name"": ""Carraixet Bici"", ""latitude"": 39.5384, ""longitude"": -0.3715}}]"
mimuovofe,Mi Muovo in Bici,/v2/networks/mimuovofe,"[""Comunicare S.r.l.""]",,44.8350382,11.6240562,Ferrara,IT,Bicincittà,http://www.mimuovoinbici.it/frmLeStazioni.aspx?ID=142,,,,,
mobibike-dresden,MOBIbike,/v2/networks/mobibike-dresden,"[""Nextbike GmbH""]",,51.0535,13.7387,Dresden,DE,Nextbike,,,,,,
mobibikes,Mobi,/v2/networks/mobibikes,"[""Vanncouver Bike Share Inc."", ""CycleHop LLC"", ""City of Vancouver"", ""Shaw Communications Inc."", ""Fifteen""]",https://gbfs.kappa.fifteen.eu/gbfs/2.2/mobi/en/gbfs.json,49.2827,-123.1207,Vancouver,CA,,,,,,,
mogo-detroit,MoGo,/v2/networks/mogo-detroit,"[""PBSC Urban Solutions"", ""Shift Transit""]",https://detroit.publicbikesystem.net/customer/gbfs/v2/gbfs.json,42.331548,-83.0465,"Detroit, MI",US,,,True,,,,
monabike,MonaBike,/v2/networks/monabike,"[""PBSC Urban Solutions""]",https://monaco.publicbikesystem.net/customer/ube/gbfs/v1/,43.733333,7.416667,Monaco,MC,,,,,,,
monopoli-bike,Monopoli BIKE,/v2/networks/monopoli-bike,"[""Comunicare S.r.l.""]",,40.94519109440738,17.311687995336918,Monopoli,IT,Bicincittà,https://www.bicincitta.com/frmLeStazioni.aspx?ID=191,,,,,
movemix-bike,Movemix Bike,/v2/networks/movemix-bike,"[""Nextbike GmbH""]",,51.4938,11.9628,Halle (Saale),DE,Nextbike,,,,,,
mvg-meinrad-nextbike-mainz,meinRad MVG Mainz,/v2/networks/mvg-meinrad-nextbike-mainz,"[""Mainzer Verkehrsgesellschaft mbH""]",,50.0153,8.252,Mainz,DE,Nextbike,,,,,,
mvrad-anklam,MV-Rad,/v2/networks/mvrad-anklam,"[""Nextbike GmbH""]",,53.8614,13.6907,Anklam,DE,,,,,,,
mvrad-hq,MV-Rad,/v2/networks/mvrad-hq,"[""Nextbike GmbH""]",,53.6707,12.4255,MV-Rad,DE,Nextbike,,,,,,
nashville,Nashville BCycle,/v2/networks/nashville,"[""BCycle, LLC""]",https://gbfs.bcycle.com/bcycle_nashville/gbfs.json,36.15768,-86.773,"Nashville, TN",US,BCycle,,,,,,
nbici,nbici,/v2/networks/nbici,"[""Bicincitta Italia S.r.l.""]",,42.8116631,-1.6482653,Pamplona,ES,Weelo,,,,,,
neuchatelroule,Neuchâtelroule,/v2/networks/neuchatelroule,"[""Donkey Republic""]",https://stables.donkey.bike/api/public/gbfs/2/donkey_neuchatel/gbfs.json,46.9916,6.9269,Neuchâtel,CH,,,,,,,
nextbike-10vorwien,Nextbike,/v2/networks/nextbike-10vorwien,"[""Nextbike GmbH""]",,48.3403,16.279,10vorWien,AT,,,,,,,
nextbike-auckland-waterfront,Nextbike,/v2/networks/nextbike-auckland-waterfront,"[""Nextbike GmbH""]",,-36.841,174.763,Auckland Waterfront,NZ,,,,,,,
nextbike-bergamo,nextbike Bergamo,/v2/networks/nextbike-bergamo,"[""Nextbike GmbH""]",,45.6986,9.67567,Bergamo,IT,Nextbike,,,,,,
nextbike-berlin,Nextbike,/v2/networks/nextbike-berlin,"[""Nextbike GmbH""]",,52.5087,13.3563,Berlin,DE,Nextbike,,,,,,
nextbike-berounsko,nextbike Berounsko,/v2/networks/nextbike-berounsko,"[""Nextbike GmbH""]",,49.9616,14.064,Berounsko,CZ,Nextbike,,,,,,
nextbike-bielefeld,meinSiggi,/v2/networks/nextbike-bielefeld,"[""Nextbike GmbH""]",,52.0257,8.53286,Bielefeld,DE,Nextbike,,,,,,
nextbike-biker-bialystok,BIKER Białystok,/v2/networks/nextbike-biker-bialystok,"[""Nextbike GmbH""]",https://gbfs.nextbike.net/maps/gbfs/v2/nextbike_bp/gbfs.json,53.1299,23.1564,Białystok,PL,Nextbike,,,,,,
nextbike-bonn,Nextbike,/v2/networks/nextbike-bonn,"[""Nextbike GmbH""]",,50.7367,7.09541,Bonn,DE,Nextbike,,,,,,
nextbike-brno,nextbike Brno,/v2/networks/nextbike-brno,"[""Nextbike GmbH""]",,49.1911,16.6148,Brno,CZ,Nextbike,,,,,,
nextbike-brno-kurim,nextbike Brno,/v2/networks/nextbike-brno-kurim,"[""Nextbike GmbH""]",,49.2994,16.5368,Kuřim,CZ,Nextbike,,,,,,
nextbike-cardiff,Nextbike,/v2/networks/nextbike-cardiff,"[""Nextbike GmbH""]",,51.4848,-3.19062,Cardiff,GB,,,,,,,
nextbike-christchurch,Nextbike,/v2/networks/nextbike-christchurch,"[""Nextbike GmbH""]",,-43.5341,172.621,Christchurch,NZ,,,,,,,
nextbike-czestochowski-rower-miejski-poland,Częstochowski Rower Miejski Poland,/v2/networks/nextbike-czestochowski-rower-miejski-poland,"[""Nextbike GmbH""]",https://gbfs.nextbike.net/maps/gbfs/v2/nextbike_jp/gbfs.json,50.8116,19.1176,Częstochowa,PL,Nextbike,,,,,,
nextbike-dusseldorf,Nextbike,/v2/networks/nextbike-dusseldorf,"[""Nextbike GmbH""]",,51.2243,6.77204,Düsseldorf,DE,Nextbike,,,,,,
nextbike-dvur-kralove,nextbike Dvůr Králové,/v2/networks/nextbike-dvur-kralove,"[""Nextbike GmbH""]",,50.4278,15.8162,Dvůr Králové,CZ,Nextbike,,,,,,
nextbike-ennetmoos,Nextbike,/v2/networks/nextbike-ennetmoos,"[""Nextbike GmbH""]",,46.9573,8.3377,Ennetmoos,CH,Nextbike,,,,,,
nextbike-erfurt,Nextbike,/v2/networks/nextbike-erfurt,"[""Nextbike GmbH""]",,50.9785,11.0334,Erfurt,DE,,,,,,,
nextbike-focsani,nextbike Romania,/v2/networks/nextbike-focsani,"[""Nextbike GmbH""]",,45.6947,27.1851,Focșani,RO,Nextbike,,,,,,
nextbike-frydek-mistek,nextbike Frýdek-Místek,/v2/networks/nextbike-frydek-mistek,"[""Nextbike GmbH""]",,49.6832,18.3457,Frýdek-Místek,CZ,Nextbike,,,,,,
nextbike-giessen,Nextbike,/v2/networks/nextbike-giessen,"[""Nextbike GmbH""]",,50.5943,8.68097,Gießen,DE,Nextbike,,,,,,
nextbike-glasgow,Nextbike,/v2/networks/nextbike-glasgow,"[""Nextbike GmbH""]",,55.8589,-4.25549,Glasgow,GB,Nextbike,,,,,,
nextbike-grm-grodzisk-poland,GRM Grodzisk Poland,/v2/networks/nextbike-grm-grodzisk-poland,"[""Nextbike GmbH""]",https://gbfs.nextbike.net/maps/gbfs/v2/nextbike_gp/gbfs.json,52.113,20.6265,Grodzisk Mazowiecki,PL,Nextbike,,,,,,
nextbike-gross-enzersdorf,Nextbike,/v2/networks/nextbike-gross-enzersdorf,"[""Nextbike GmbH""]",,48.1986,16.5496,Groß Enzersdorf,AT,Nextbike,,,,,,
nextbike-gutersloh,Nextbike,/v2/networks/nextbike-gutersloh,"[""Nextbike GmbH""]",,51.9049,8.39275,Gütersloh,DE,Nextbike,,,,,,
nextbike-havirov,nextbike Havířov,/v2/networks/nextbike-havirov,"[""Nextbike GmbH""]",,49.7799,18.4328,Havířov,CZ,Nextbike,,,,,,
nextbike-hergiswil,Nextbike,/v2/networks/nextbike-hergiswil,"[""Nextbike GmbH""]",,46.9905,8.30829,Hergiswil,CH,Nextbike,,,,,,
nextbike-hodonin,nextbike Hodonín,/v2/networks/nextbike-hodonin,"[""Nextbike GmbH""]",,48.8489,17.1327,Hodonín,CZ,Nextbike,,,,,,
nextbike-hollabrunn,Nextbike,/v2/networks/nextbike-hollabrunn,"[""Nextbike GmbH""]",,48.562,16.0785,Hollabrunn,AT,Nextbike,,,,,,
nextbike-horw,Nextbike,/v2/networks/nextbike-horw,"[""Nextbike GmbH""]",,47.0188,8.30828,Horw,CH,Nextbike,,,,,,
nextbike-hradec-kralove,nextbike Hradec Králové,/v2/networks/nextbike-hradec-kralove,"[""Nextbike GmbH""]",,50.2079,15.8334,Hradec Králové,CZ,Nextbike,,,,,,
nextbike-ivano-frankivsk,Nextbike,/v2/networks/nextbike-ivano-frankivsk,"[""Nextbike GmbH""]",,48.9281,24.7103,Ivano Frankivsk,UA,Nextbike,,,,,,
nextbike-jaskolka,JasKółka,/v2/networks/nextbike-jaskolka,"[""Nextbike GmbH""]",https://gbfs.nextbike.net/maps/gbfs/v2/nextbike_pj/gbfs.json,49.9537,18.6005,Jastrzębie-Zdrój,PL,Nextbike,,,,,,
nextbike-jicin,nextbike Jičín,/v2/networks/nextbike-jicin,"[""Nextbike GmbH""]",,50.4367,15.3743,Jičín,CZ,Nextbike,,,,,,
nextbike-jihlava,nextbike Jihlava,/v2/networks/nextbike-jihlava,"[""Nextbike GmbH""]",,49.4078,15.6061,Jihlava,CZ,Nextbike,,,,,,
nextbike-karlsruhe,KVV.nextbike,/v2/networks/nextbike-karlsruhe,"[""Nextbike GmbH""]",,49.0102,8.41827,Karlsruhe,DE,Nextbike,,,,,,
nextbike-kassel,Nextbike,/v2/networks/nextbike-kassel,"[""Nextbike GmbH""]",,51.3127,9.47975,Kassel,DE,Nextbike,,,,,,
nextbike-kladno,nextbike Kladno,/v2/networks/nextbike-kladno,"[""Nextbike GmbH""]",,50.1435,14.1082,Kladno,CZ,Nextbike,,,,,,
nextbike-klagenfurt,Nextbike,/v2/networks/nextbike-klagenfurt,"[""Nextbike GmbH""]",,46.6335,14.3085,Klagenfurt,AT,Nextbike,,,,,,
nextbike-kolobrzeski-rower-nextbike,Kołobrzeski Rower Nextbike,/v2/networks/nextbike-kolobrzeski-rower-nextbike,"[""Nextbike GmbH""]",https://gbfs.nextbike.net/maps/gbfs/v2/nextbike_kr/gbfs.json,54.1756,15.5702,Kołobrzeg,PL,Nextbike,,,,,,
nextbike-koninski-rower-miejski-poland,Koniński Rower Miejski Poland,/v2/networks/nextbike-koninski-rower-miejski-poland,"[""Nextbike GmbH""]",https://gbfs.nextbike.net/maps/gbfs/v2/nextbike_pn/gbfs.json,52.2328,18.2538,Konin,PL,Nextbike,,,,,,
nextbike-koprivnice,nextbike Kopřivnice,/v2/networks/nextbike-koprivnice,"[""Nextbike GmbH""]",,49.5934,18.1422,Kopřivnice,CZ,Nextbike,,,,,,
nextbike-koszalinski-rower-miejski-poland,Koszaliński Rower Miejski Poland,/v2/networks/nextbike-koszalinski-rower-miejski-poland,"[""Nextbike GmbH""]",https://gbfs.nextbike.net/maps/gbfs/v2/nextbike_ps/gbfs.json,54.1866,16.1877,Koszalin,PL,Nextbike,,,,,,
nextbike-krnov,nextbike Krnov,/v2/networks/nextbike-krnov,"[""Nextbike GmbH""]",,50.0703,17.8837,Krnov,CZ,,,,,,,
nextbike-leipzig,Nextbike,/v2/networks/nextbike-leipzig,"[""Nextbike GmbH""]",,51.3415,12.3625,Leipzig,DE,Nextbike,,,,,,
nextbike-limassol,Nextbike,/v2/networks/nextbike-limassol,"[""Nextbike GmbH""]",,34.6823,33.0464,Limassol,CY,Nextbike,,,,,,
nextbike-lippstadt,Nextbike,/v2/networks/nextbike-lippstadt,"[""Nextbike GmbH""]",,51.6755,8.34394,Lippstadt,DE,Nextbike,,,,,,
nextbike-lodzki-rower-publiczny,Łódzki Rower Publiczny,/v2/networks/nextbike-lodzki-rower-publiczny,"[""Nextbike GmbH""]",https://gbfs.nextbike.net/maps/gbfs/v2/nextbike_lp/gbfs.json,51.7591,19.456,Łódź - Łódzki Rower Publiczny,PL,Nextbike,,,,,,
nextbike-loker-lomza,ŁoKeR - Łomża,/v2/networks/nextbike-loker-lomza,"[""Nextbike GmbH""]",https://gbfs.nextbike.net/maps/gbfs/v2/nextbike_oa/gbfs.json,53.1733,22.0726,Łomża,PL,Nextbike,,,,,,
nextbike-luzern,Nextbike,/v2/networks/nextbike-luzern,"[""Nextbike GmbH""]",,47.0472,8.30446,Luzern,CH,Nextbike,,,,,,
nextbike-lviv,Nextbike,/v2/networks/nextbike-lviv,"[""Nextbike GmbH""]",,49.8402,24.0182,Lviv,UA,Nextbike,,,,,,
nextbike-marburg,Nextbike,/v2/networks/nextbike-marburg,"[""Nextbike GmbH""]",,50.8019,8.76444,Marburg,DE,Nextbike,,,,,,
nextbike-mladoboleslavsko-mlada-boleslav,nextbike Mladoboleslavsko,/v2/networks/nextbike-mladoboleslavsko-mlada-boleslav,"[""Nextbike GmbH""]",,50.4278,14.8999,Mladá Boleslav,CZ,Nextbike,,,,,,
nextbike-mladoboleslavsko-mnichovo-hradiste,nextbike Mladoboleslavsko,/v2/networks/nextbike-mladoboleslavsko-mnichovo-hradiste,"[""Nextbike GmbH""]",,50.5218,14.9741,Mnichovo Hradiště,CZ,Nextbike,,,,,,
nextbike-modling,Nextbike,/v2/networks/nextbike-modling,"[""Nextbike GmbH""]",,48.1047,16.3202,Mödling,AT,Nextbike,,,,,,
nextbike-most,nextbike Most,/v2/networks/nextbike-most,"[""Nextbike GmbH""]",,50.5014,13.6361,Most,CZ,Nextbike,,,,,,
nextbike-nicosia,Nextbike,/v2/networks/nextbike-nicosia,"[""Nextbike GmbH""]",,35.1728,33.3653,Nicosia,CY,Nextbike,,,,,,
nextbike-norderstedt,Nextbike,/v2/networks/nextbike-norderstedt,"[""Nextbike GmbH""]",,53.6969,10.002,Norderstedt,DE,Nextbike,,,,,,
nextbike-novy-jicin,nextbike Nový Jičín,/v2/networks/nextbike-novy-jicin,"[""Nextbike GmbH""]",,49.5976,18.008,Nový Jičín,CZ,,,,,,,
nextbike-oberdorf,Nextbike,/v2/networks/nextbike-oberdorf,"[""Nextbike GmbH""]",,46.9563,8.3884,Oberdorf,CH,Nextbike,,,,,,
nextbike-ok-bike,OK Bike,/v2/networks/nextbike-ok-bike,"[""Nextbike GmbH""]",https://gbfs.nextbike.net/maps/gbfs/v2/nextbike_km/gbfs.json,50.3436,18.2104,Kędzierzyn-Koźle,PL,Nextbike,,,,,,
nextbike-olbramovicevotice,nextbike OlbramoviceVotice,/v2/networks/nextbike-olbramovicevotice,"[""Nextbike GmbH""]",,49.6525,14.6355,Olbramovice/Votice,CZ,Nextbike,,,,,,
nextbike-oldenburg,OLi-Bike,/v2/networks/nextbike-oldenburg,"[""Bremer Tageszeitungen AG""]",,53.1448,8.22485,Oldenburg,DE,Nextbike,,,,,,
nextbike-olomouc,nextbike Olomouc,/v2/networks/nextbike-olomouc,"[""Nextbike GmbH""]",,49.5929,17.2459,Olomouc,CZ,Nextbike,,,,,,
nextbike-opava,nextbike Opava,/v2/networks/nextbike-opava,"[""Nextbike GmbH""]",,49.9289,18.2634,Opava,CZ,Nextbike,,,,,,
nextbike-ortenaukreis,Nextbike Ortenaukreis,/v2/networks/nextbike-ortenaukreis,"[""nextbike GmbH""]",https://gbfs.nextbike.net/maps/gbfs/v2/nextbike_eh/gbfs.json,48.4721,7.94243,Ortenaukreis,DE,,,,,,,
nextbike-ostrava,nextbike Ostrava,/v2/networks/nextbike-ostrava,"[""Nextbike GmbH""]",,49.8344,18.2823,Ostrava,CZ,Nextbike,,,,,,
nextbike-ostrava-hlucin,nextbike Ostrava,/v2/networks/nextbike-ostrava-hlucin,"[""Nextbike GmbH""]",,49.898,18.1923,Hlučín,CZ,Nextbike,,,,,,
nextbike-ostrava-vresina,nextbike Ostrava,/v2/networks/nextbike-ostrava-vresina,"[""Nextbike GmbH""]",,49.825,18.1206,Vřesina,CZ,,,,,,,
nextbike-otwocki-rower-miejski,Otwocki Rower Miejski,/v2/networks/nextbike-otwocki-rower-miejski,"[""Nextbike GmbH""]",https://gbfs.nextbike.net/maps/gbfs/v2/nextbike_os/gbfs.json,52.1042,21.2538,Otwock,PL,Nextbike,,,,,,
nextbike-pardubice,nextbike Pardubice,/v2/networks/nextbike-pardubice,"[""Nextbike GmbH""]",,50.0343,15.7812,Pardubice,CZ,,,,,,,
nextbike-piaseczynski-rower-miejski,Piaseczyński Rower Miejski,/v2/networks/nextbike-piaseczynski-rower-miejski,"[""Nextbike GmbH""]",https://gbfs.nextbike.net/maps/gbfs/v2/nextbike_pi/gbfs.json,52.0733,21.0269,Piaseczno,PL,Nextbike,,,,,,
nextbike-pisek,nextbike Písek,/v2/networks/nextbike-pisek,"[""Nextbike GmbH""]",,49.3051,14.1463,Písek,CZ,Nextbike,,,,,,
nextbike-potsdam,Nextbike,/v2/networks/nextbike-potsdam,"[""Nextbike GmbH""]",,52.3997,13.0676,Potsdam,DE,Nextbike,,,,,,
nextbike-praha,nextbike Praha,/v2/networks/nextbike-praha,"[""Nextbike GmbH""]",,50.0592,14.5761,Praha,CZ,Nextbike,,,,,,
nextbike-praha-ricany,nextbike Praha,/v2/networks/nextbike-praha-ricany,"[""Nextbike GmbH""]",,49.9976,14.6685,Říčany,CZ,Nextbike,,,,,,
nextbike-prerov,nextbike Prerov,/v2/networks/nextbike-prerov,"[""Nextbike GmbH""]",,49.4574,17.4408,Prerov,CZ,Nextbike,,,,,,
nextbike-prostejov,nextbike Prostejov,/v2/networks/nextbike-prostejov,"[""Nextbike GmbH""]",,49.4722,17.1055,Prostejov,CZ,Nextbike,,,,,,
nextbike-pruszkowski-rower-miejski,Pruszkowski Rower Miejski,/v2/networks/nextbike-pruszkowski-rower-miejski,"[""Nextbike GmbH""]",https://gbfs.nextbike.net/maps/gbfs/v2/nextbike_or/gbfs.json,52.1617,20.8071,Pruszków,PL,Nextbike,,,,,,
nextbike-rower-miejski-w-ostrowie-wielkopolskim,Rower Miejski w Ostrowie Wielkopolskim,/v2/networks/nextbike-rower-miejski-w-ostrowie-wielkopolskim,"[""Nextbike GmbH""]",https://gbfs.nextbike.net/maps/gbfs/v2/nextbike_po/gbfs.json,51.6368,17.7958,Ostrów Wielkopolski,PL,Nextbike,,,,,,
nextbike-rowerowe-lodzkie,Rowerowe Łódzkie,/v2/networks/nextbike-rowerowe-lodzkie,"[""Nextbike GmbH""]",https://gbfs.nextbike.net/maps/gbfs/v2/nextbike_pw/gbfs.json,51.7406,19.3151,Łódzkie,PL,Nextbike,,,,,,
nextbike-russelsheim-am-main,Nextbike,/v2/networks/nextbike-russelsheim-am-main,"[""Nextbike GmbH""]",,49.9881,8.42142,Rüsselsheim am Main,DE,Nextbike,,,,,,
nextbike-rychnovsko,nextbike Rychnovsko,/v2/networks/nextbike-rychnovsko,"[""Nextbike GmbH""]",,50.1668,16.2828,Rychnovsko,CZ,Nextbike,,,,,,
nextbike-sarajevo,Nextbike,/v2/networks/nextbike-sarajevo,"[""Nextbike GmbH""]",,43.85,18.39,Sarajevo,BA,Nextbike,,,,,,
nextbike-sarnen,Nextbike,/v2/networks/nextbike-sarnen,"[""Nextbike GmbH""]",,46.8963,8.24614,Sarnen,CH,Nextbike,,,,,,
nextbike-serfaus,Nextbike,/v2/networks/nextbike-serfaus,"[""Nextbike GmbH""]",,47.0387,10.6048,Serfaus,AT,,,,,,,
nextbike-stans,Nextbike,/v2/networks/nextbike-stans,"[""Nextbike GmbH""]",,46.9593,8.36836,Stans,CH,Nextbike,,,,,,
nextbike-stansstad,Nextbike,/v2/networks/nextbike-stansstad,"[""Nextbike GmbH""]",,46.9801,8.34098,Stansstad,CH,Nextbike,,,,,,
nextbike-stirling,Nextbike,/v2/networks/nextbike-stirling,"[""Nextbike GmbH""]",,56.1165,-3.9369,Stirling,GB,Nextbike,,,,,,
nextbike-stpolten,Nextbike,/v2/networks/nextbike-stpolten,"[""Nextbike GmbH""]",,48.2058,15.6232,St.Pölten,AT,Nextbike,,,,,,
nextbike-sursee,Nextbike,/v2/networks/nextbike-sursee,"[""Nextbike GmbH""]",,47.1713,8.10877,Sursee,CH,Nextbike,,,,,,
